{
    "summary": {
        "total_personnel": 60,
        "total_routes": 376
    },
    "personnel_route_assignments": [
        {
            "personnel_id": "0",
            "name": "张福川",
            "ban_info": "冯人杰",
            "ban_city": "杭州市|无锡市|泰州市|上海市|苏州市|南通市|福州市|湖州市",
            "work_day": "8",
            "efficiency": "3.75",
            "assigned_routes": [
                {
                    "route_id": 339,
                    "store_count": 3,
                    "total_distance_km": 0.0,
                    "total_time_h": 0.0,
                    "store_sequence": "ME806(百色市) - MS1698(河池市) - MS230(河池市)",
                    "stores": [
                        {
                            "id": "ME806",
                            "name": "ME806(百色市)",
                            "lon": 105.34099,
                            "lat": 24.77082
                        },
                        {
                            "id": "MS1698",
                            "name": "MS1698(河池市)",
                            "lon": 107.378186,
                            "lat": 24.510252
                        },
                        {
                            "id": "MS230",
                            "name": "MS230(河池市)",
                            "lon": 108.102744,
                            "lat": 23.930981
                        }
                    ]
                },
                {
                    "route_id": 347,
                    "store_count": 9,
                    "total_distance_km": 0.0,
                    "total_time_h": 0.0,
                    "store_sequence": "ME143(南宁市) - MS670(南宁市) - MW0868(南宁市) - TA0322(玉林市) - T603(玉林市) - T977(玉林市) - T536(玉林市) - TA0574(玉林市) - TW0216(玉林市)",
                    "stores": [
                        {
                            "id": "ME143",
                            "name": "ME143(南宁市)",
                            "lon": 109.269793,
                            "lat": 22.682827
                        },
                        {
                            "id": "MS670",
                            "name": "MS670(南宁市)",
                            "lon": 109.276631,
                            "lat": 22.695724
                        },
                        {
                            "id": "MW0868",
                            "name": "MW0868(南宁市)",
                            "lon": 109.457225,
                            "lat": 22.687262
                        },
                        {
                            "id": "TA0322",
                            "name": "TA0322(玉林市)",
                            "lon": 110.140261,
                            "lat": 22.622297
                        },
                        {
                            "id": "T603",
                            "name": "T603(玉林市)",
                            "lon": 110.206916,
                            "lat": 22.662341
                        },
                        {
                            "id": "T977",
                            "name": "T977(玉林市)",
                            "lon": 110.165934,
                            "lat": 22.630438
                        },
                        {
                            "id": "T536",
                            "name": "T536(玉林市)",
                            "lon": 110.170012,
                            "lat": 22.606549
                        },
                        {
                            "id": "TA0574",
                            "name": "TA0574(玉林市)",
                            "lon": 110.144526,
                            "lat": 22.593069
                        },
                        {
                            "id": "TW0216",
                            "name": "TW0216(玉林市)",
                            "lon": 110.199948,
                            "lat": 21.945736
                        }
                    ]
                },
                {
                    "route_id": 110,
                    "store_count": 13,
                    "total_distance_km": 0.0,
                    "total_time_h": 0.0,
                    "store_sequence": "MW0922(广州市) - TW0085(广州市) - ME608(广州市) - MS740(广州市) - MW0830(广州市) - MS035(广州市) - MS1516(广州市) - MS1361(广州市) - ME612(广州市) - MS1338(广州市) - MS1873(广州市) - MS972(广州市) - MS2251(广州市)",
                    "stores": [
                        {
                            "id": "MW0922",
                            "name": "MW0922(广州市)",
                            "lon": 113.295487,
                            "lat": 23.336206
                        },
                        {
                            "id": "TW0085",
                            "name": "TW0085(广州市)",
                            "lon": 113.295881,
                            "lat": 23.345255
                        },
                        {
                            "id": "ME608",
                            "name": "ME608(广州市)",
                            "lon": 113.260618,
                            "lat": 23.37525
                        },
                        {
                            "id": "MS740",
                            "name": "MS740(广州市)",
                            "lon": 113.245528,
                            "lat": 23.390249
                        },
                        {
                            "id": "MW0830",
                            "name": "MW0830(广州市)",
                            "lon": 113.231061,
                            "lat": 23.39563
                        },
                        {
                            "id": "MS035",
                            "name": "MS035(广州市)",
                            "lon": 113.222952,
                            "lat": 23.399998
                        },
                        {
                            "id": "MS1516",
                            "name": "MS1516(广州市)",
                            "lon": 113.212129,
                            "lat": 23.399278
                        },
                        {
                            "id": "MS1361",
                            "name": "MS1361(广州市)",
                            "lon": 113.20653,
                            "lat": 23.40469
                        },
                        {
                            "id": "ME612",
                            "name": "ME612(广州市)",
                            "lon": 113.204068,
                            "lat": 23.391392
                        },
                        {
                            "id": "MS1338",
                            "name": "MS1338(广州市)",
                            "lon": 113.196396,
                            "lat": 23.380871
                        },
                        {
                            "id": "MS1873",
                            "name": "MS1873(广州市)",
                            "lon": 113.197661,
                            "lat": 23.37005
                        },
                        {
                            "id": "MS972",
                            "name": "MS972(广州市)",
                            "lon": 113.217343,
                            "lat": 23.380993
                        },
                        {
                            "id": "MS2251",
                            "name": "MS2251(广州市)",
                            "lon": 113.246808,
                            "lat": 23.362412
                        }
                    ]
                }
            ],
            "total_cities": 3,
            "city_sequence": "河池市 -> 玉林市 -> 广州市",
            "route_summary": {
                "total_routes": 376,
                "total_stores": 25,
                "total_distance_km": 75.32278333333333,
                "total_time_h": 75.32278333333333
            }
        },
        {
            "personnel_id": "1",
            "name": "吴湟",
            "ban_info": "范奇富|陆廷涛|陈晨",
            "ban_city": "邯郸市|聊城市|石家庄市|鹤岗市|伊春市|保定市|赤峰市|德州市|锡林郭勒盟|衡水市|邢台市",
            "work_day": "18",
            "efficiency": "3.75",
            "assigned_routes": [
                {
                    "route_id": 356,
                    "store_count": 10,
                    "total_distance_km": 0.0,
                    "total_time_h": 0.0,
                    "store_sequence": "MS2031(天津市) - MS1967(天津市) - MS1902(天津市) - MS2006(天津市) - TS935(天津市) - MS2400(天津市) - TS1008(天津市) - TS1187(天津市) - MS2131(天津市) - MS1910(天津市)",
                    "stores": [
                        {
                            "id": "MS2031",
                            "name": "MS2031(天津市)",
                            "lon": 117.037102,
                            "lat": 39.429616
                        },
                        {
                            "id": "MS1967",
                            "name": "MS1967(天津市)",
                            "lon": 117.01609,
                            "lat": 39.403192
                        },
                        {
                            "id": "MS1902",
                            "name": "MS1902(天津市)",
                            "lon": 117.05978,
                            "lat": 39.386434
                        },
                        {
                            "id": "MS2006",
                            "name": "MS2006(天津市)",
                            "lon": 117.058436,
                            "lat": 39.406608
                        },
                        {
                            "id": "TS935",
                            "name": "TS935(天津市)",
                            "lon": 117.217336,
                            "lat": 39.199166
                        },
                        {
                            "id": "MS2400",
                            "name": "MS2400(天津市)",
                            "lon": 117.270124,
                            "lat": 39.203736
                        },
                        {
                            "id": "TS1008",
                            "name": "TS1008(天津市)",
                            "lon": 117.24155,
                            "lat": 39.180462
                        },
                        {
                            "id": "TS1187",
                            "name": "TS1187(天津市)",
                            "lon": 117.283311,
                            "lat": 39.095398
                        },
                        {
                            "id": "MS2131",
                            "name": "MS2131(天津市)",
                            "lon": 117.327909,
                            "lat": 39.091782
                        },
                        {
                            "id": "MS1910",
                            "name": "MS1910(天津市)",
                            "lon": 117.394048,
                            "lat": 39.157693
                        }
                    ]
                },
                {
                    "route_id": 225,
                    "store_count": 6,
                    "total_distance_km": 0.0,
                    "total_time_h": 0.0,
                    "store_sequence": "MS123(济宁市) - MA0449(泰安市) - ME370(泰安市) - ME903(泰安市) - MS422(济宁市) - MS1580(济宁市)",
                    "stores": [
                        {
                            "id": "MS123",
                            "name": "MS123(济宁市)",
                            "lon": 116.49453,
                            "lat": 35.706819
                        },
                        {
                            "id": "MA0449",
                            "name": "MA0449(泰安市)",
                            "lon": 116.450936,
                            "lat": 35.910503
                        },
                        {
                            "id": "ME370",
                            "name": "ME370(泰安市)",
                            "lon": 116.467946,
                            "lat": 35.932174
                        },
                        {
                            "id": "ME903",
                            "name": "ME903(泰安市)",
                            "lon": 116.446843,
                            "lat": 35.93586
                        },
                        {
                            "id": "MS422",
                            "name": "MS422(济宁市)",
                            "lon": 116.101048,
                            "lat": 35.805327
                        },
                        {
                            "id": "MS1580",
                            "name": "MS1580(济宁市)",
                            "lon": 116.123902,
                            "lat": 35.770554
                        }
                    ]
                },
                {
                    "route_id": 267,
                    "store_count": 4,
                    "total_distance_km": 0.0,
                    "total_time_h": 0.0,
                    "store_sequence": "MS587(驻马店市) - MA0270(驻马店市) - MA0210(驻马店市) - ME527(驻马店市)",
                    "stores": [
                        {
                            "id": "MS587",
                            "name": "MS587(驻马店市)",
                            "lon": 114.962478,
                            "lat": 32.749595
                        },
                        {
                            "id": "MA0270",
                            "name": "MA0270(驻马店市)",
                            "lon": 114.009089,
                            "lat": 33.013204
                        },
                        {
                            "id": "MA0210",
                            "name": "MA0210(驻马店市)",
                            "lon": 114.030156,
                            "lat": 32.802
                        },
                        {
                            "id": "ME527",
                            "name": "ME527(驻马店市)",
                            "lon": 113.327853,
                            "lat": 32.719897
                        }
                    ]
                },
                {
                    "route_id": 260,
                    "store_count": 5,
                    "total_distance_km": 0.0,
                    "total_time_h": 0.0,
                    "store_sequence": "MS2112(信阳市) - MS1370(信阳市) - MW0491(信阳市) - TS736(信阳市) - ME1164(信阳市)",
                    "stores": [
                        {
                            "id": "MS2112",
                            "name": "MS2112(信阳市)",
                            "lon": 114.079525,
                            "lat": 32.114882
                        },
                        {
                            "id": "MS1370",
                            "name": "MS1370(信阳市)",
                            "lon": 114.099758,
                            "lat": 32.124096
                        },
                        {
                            "id": "MW0491",
                            "name": "MW0491(信阳市)",
                            "lon": 114.531649,
                            "lat": 32.20049
                        },
                        {
                            "id": "TS736",
                            "name": "TS736(信阳市)",
                            "lon": 114.738199,
                            "lat": 32.353978
                        },
                        {
                            "id": "ME1164",
                            "name": "ME1164(信阳市)",
                            "lon": 115.415353,
                            "lat": 32.455778
                        }
                    ]
                },
                {
                    "route_id": 258,
                    "store_count": 12,
                    "total_distance_km": 0.0,
                    "total_time_h": 0.0,
                    "store_sequence": "M529(郑州市) - M869(郑州市) - MS2142(郑州市) - MW0390(郑州市) - T753(郑州市) - T770(郑州市) - T584(郑州市) - MW0788(郑州市) - MS1671(郑州市) - MS324(郑州市) - TS352(郑州市) - T675(郑州市)",
                    "stores": [
                        {
                            "id": "M529",
                            "name": "M529(郑州市)",
                            "lon": 113.687106,
                            "lat": 34.596758
                        },
                        {
                            "id": "M869",
                            "name": "M869(郑州市)",
                            "lon": 113.711021,
                            "lat": 34.611236
                        },
                        {
                            "id": "MS2142",
                            "name": "MS2142(郑州市)",
                            "lon": 113.687708,
                            "lat": 34.628064
                        },
                        {
                            "id": "MW0390",
                            "name": "MW0390(郑州市)",
                            "lon": 113.641035,
                            "lat": 34.683522
                        },
                        {
                            "id": "T753",
                            "name": "T753(郑州市)",
                            "lon": 113.626956,
                            "lat": 34.712637
                        },
                        {
                            "id": "T770",
                            "name": "T770(郑州市)",
                            "lon": 113.633031,
                            "lat": 34.704548
                        },
                        {
                            "id": "T584",
                            "name": "T584(郑州市)",
                            "lon": 113.67211,
                            "lat": 34.695934
                        },
                        {
                            "id": "MW0788",
                            "name": "MW0788(郑州市)",
                            "lon": 113.68395,
                            "lat": 34.696913
                        },
                        {
                            "id": "MS1671",
                            "name": "MS1671(郑州市)",
                            "lon": 113.683122,
                            "lat": 34.726218
                        },
                        {
                            "id": "MS324",
                            "name": "MS324(郑州市)",
                            "lon": 113.66514,
                            "lat": 34.750044
                        },
                        {
                            "id": "TS352",
                            "name": "TS352(郑州市)",
                            "lon": 113.667207,
                            "lat": 34.75737
                        },
                        {
                            "id": "T675",
                            "name": "T675(郑州市)",
                            "lon": 113.665207,
                            "lat": 34.769084
                        }
                    ]
                },
                {
                    "route_id": 308,
                    "store_count": 7,
                    "total_distance_km": 0.0,
                    "total_time_h": 0.0,
                    "store_sequence": "MS215(武汉市) - MS1565(武汉市) - MS728(武汉市) - MS1334(武汉市) - MS1435(武汉市) - MA0042(武汉市) - MS855(武汉市)",
                    "stores": [
                        {
                            "id": "MS215",
                            "name": "MS215(武汉市)",
                            "lon": 114.223131,
                            "lat": 30.585213
                        },
                        {
                            "id": "MS1565",
                            "name": "MS1565(武汉市)",
                            "lon": 114.197351,
                            "lat": 30.59905
                        },
                        {
                            "id": "MS728",
                            "name": "MS728(武汉市)",
                            "lon": 114.208327,
                            "lat": 30.612378
                        },
                        {
                            "id": "MS1334",
                            "name": "MS1334(武汉市)",
                            "lon": 114.209405,
                            "lat": 30.621045
                        },
                        {
                            "id": "MS1435",
                            "name": "MS1435(武汉市)",
                            "lon": 114.204355,
                            "lat": 30.631384
                        },
                        {
                            "id": "MA0042",
                            "name": "MA0042(武汉市)",
                            "lon": 114.234783,
                            "lat": 30.637385
                        },
                        {
                            "id": "MS855",
                            "name": "MS855(武汉市)",
                            "lon": 114.223709,
                            "lat": 30.657762
                        }
                    ]
                },
                {
                    "route_id": 247,
                    "store_count": 6,
                    "total_distance_km": 0.0,
                    "total_time_h": 0.0,
                    "store_sequence": "TA0872(岳阳市) - M480(岳阳市) - TA0848(岳阳市) - TS903(岳阳市) - TS931(岳阳市) - TW0014(岳阳市)",
                    "stores": [
                        {
                            "id": "TA0872",
                            "name": "TA0872(岳阳市)",
                            "lon": 113.360337,
                            "lat": 29.535286
                        },
                        {
                            "id": "M480",
                            "name": "M480(岳阳市)",
                            "lon": 113.452266,
                            "lat": 29.472779
                        },
                        {
                            "id": "TA0848",
                            "name": "TA0848(岳阳市)",
                            "lon": 113.415782,
                            "lat": 29.339382
                        },
                        {
                            "id": "TS903",
                            "name": "TS903(岳阳市)",
                            "lon": 113.004391,
                            "lat": 29.439541
                        },
                        {
                            "id": "TS931",
                            "name": "TS931(岳阳市)",
                            "lon": 113.129933,
                            "lat": 29.364833
                        },
                        {
                            "id": "TW0014",
                            "name": "TW0014(岳阳市)",
                            "lon": 113.105641,
                            "lat": 29.357561
                        }
                    ]
                },
                {
                    "route_id": 227,
                    "store_count": 12,
                    "total_distance_km": 0.0,
                    "total_time_h": 0.0,
                    "store_sequence": "TA0156(长沙市) - M531(长沙市) - MS2257(长沙市) - MS1158(长沙市) - T820(长沙市) - TW0662(长沙市) - T722(长沙市) - TW0038(长沙市) - TE279(长沙市) - T974(长沙市) - T726(长沙市) - T193(长沙市)",
                    "stores": [
                        {
                            "id": "TA0156",
                            "name": "TA0156(长沙市)",
                            "lon": 113.723052,
                            "lat": 27.972418
                        },
                        {
                            "id": "M531",
                            "name": "M531(长沙市)",
                            "lon": 113.62728,
                            "lat": 28.157461
                        },
                        {
                            "id": "MS2257",
                            "name": "MS2257(长沙市)",
                            "lon": 113.649222,
                            "lat": 28.164608
                        },
                        {
                            "id": "MS1158",
                            "name": "MS1158(长沙市)",
                            "lon": 113.293286,
                            "lat": 28.214739
                        },
                        {
                            "id": "T820",
                            "name": "T820(长沙市)",
                            "lon": 113.0624,
                            "lat": 28.237651
                        },
                        {
                            "id": "TW0662",
                            "name": "TW0662(长沙市)",
                            "lon": 113.058737,
                            "lat": 28.17286
                        },
                        {
                            "id": "T722",
                            "name": "T722(长沙市)",
                            "lon": 113.069235,
                            "lat": 28.159916
                        },
                        {
                            "id": "TW0038",
                            "name": "TW0038(长沙市)",
                            "lon": 113.056756,
                            "lat": 28.135318
                        },
                        {
                            "id": "TE279",
                            "name": "TE279(长沙市)",
                            "lon": 113.034002,
                            "lat": 28.134427
                        },
                        {
                            "id": "T974",
                            "name": "T974(长沙市)",
                            "lon": 113.025811,
                            "lat": 28.122515
                        },
                        {
                            "id": "T726",
                            "name": "T726(长沙市)",
                            "lon": 113.02512,
                            "lat": 28.112635
                        },
                        {
                            "id": "T193",
                            "name": "T193(长沙市)",
                            "lon": 113.010269,
                            "lat": 28.111894
                        }
                    ]
                },
                {
                    "route_id": 91,
                    "store_count": 12,
                    "total_distance_km": 0.0,
                    "total_time_h": 0.0,
                    "store_sequence": "TE150(重庆市) - TE254(重庆市) - TE134(重庆市) - TE264(重庆市) - TS364(重庆市) - TS866(重庆市) - TE242(重庆市) - TE273(重庆市) - TW0433(重庆市) - MS1651(重庆市) - TW0472(重庆市) - MW0623(重庆市)",
                    "stores": [
                        {
                            "id": "TE150",
                            "name": "TE150(重庆市)",
                            "lon": 106.597988,
                            "lat": 29.668432
                        },
                        {
                            "id": "TE254",
                            "name": "TE254(重庆市)",
                            "lon": 106.605787,
                            "lat": 29.670689
                        },
                        {
                            "id": "TE134",
                            "name": "TE134(重庆市)",
                            "lon": 106.603962,
                            "lat": 29.68621
                        },
                        {
                            "id": "TE264",
                            "name": "TE264(重庆市)",
                            "lon": 106.608948,
                            "lat": 29.707899
                        },
                        {
                            "id": "TS364",
                            "name": "TS364(重庆市)",
                            "lon": 106.608567,
                            "lat": 29.716058
                        },
                        {
                            "id": "TS866",
                            "name": "TS866(重庆市)",
                            "lon": 106.573414,
                            "lat": 29.720019
                        },
                        {
                            "id": "TE242",
                            "name": "TE242(重庆市)",
                            "lon": 106.560957,
                            "lat": 29.666599
                        },
                        {
                            "id": "TE273",
                            "name": "TE273(重庆市)",
                            "lon": 106.526437,
                            "lat": 29.652249
                        },
                        {
                            "id": "TW0433",
                            "name": "TW0433(重庆市)",
                            "lon": 106.55393,
                            "lat": 29.72383
                        },
                        {
                            "id": "MS1651",
                            "name": "MS1651(重庆市)",
                            "lon": 106.476472,
                            "lat": 29.715812
                        },
                        {
                            "id": "TW0472",
                            "name": "TW0472(重庆市)",
                            "lon": 106.465826,
                            "lat": 29.676179
                        },
                        {
                            "id": "MW0623",
                            "name": "MW0623(重庆市)",
                            "lon": 106.412344,
                            "lat": 29.96833
                        }
                    ]
                }
            ],
            "total_cities": 9,
            "city_sequence": "天津市 -> 济宁市 -> 驻马店市 -> 信阳市 -> 郑州市 -> 武汉市 -> 岳阳市 -> 长沙市 -> 重庆市",
            "route_summary": {
                "total_routes": 376,
                "total_stores": 74,
                "total_distance_km": 172.5115458333333,
                "total_time_h": 172.5115458333333
            }
        },
        {
            "personnel_id": "2",
            "name": "蔡霜霜",
            "ban_info": "西部大区",
            "ban_city": "菏泽市|泰安市|安阳市|郑州市|张家口市|烟台市|徐州市",
            "work_day": "18",
            "efficiency": "3.75",
            "assigned_routes": [
                {
                    "route_id": 169,
                    "store_count": 10,
                    "total_distance_km": 0.0,
                    "total_time_h": 0.0,
                    "store_sequence": "TA0863(合肥市) - TW0361(合肥市) - ME041(合肥市) - MW1011(合肥市) - TW0162(合肥市) - TE316(合肥市) - MS2159(铜陵市) - MS1562(池州市) - MS2319(池州市) - MA0172(池州市)",
                    "stores": [
                        {
                            "id": "TA0863",
                            "name": "TA0863(合肥市)",
                            "lon": 117.10398,
                            "lat": 31.765906
                        },
                        {
                            "id": "TW0361",
                            "name": "TW0361(合肥市)",
                            "lon": 117.148223,
                            "lat": 31.770587
                        },
                        {
                            "id": "ME041",
                            "name": "ME041(合肥市)",
                            "lon": 117.168808,
                            "lat": 31.718697
                        },
                        {
                            "id": "MW1011",
                            "name": "MW1011(合肥市)",
                            "lon": 117.125022,
                            "lat": 31.676255
                        },
                        {
                            "id": "TW0162",
                            "name": "TW0162(合肥市)",
                            "lon": 117.24494,
                            "lat": 31.510617
                        },
                        {
                            "id": "TE316",
                            "name": "TE316(合肥市)",
                            "lon": 117.270047,
                            "lat": 31.261837
                        },
                        {
                            "id": "MS2159",
                            "name": "MS2159(铜陵市)",
                            "lon": 117.505297,
                            "lat": 30.894616
                        },
                        {
                            "id": "MS1562",
                            "name": "MS1562(池州市)",
                            "lon": 117.466818,
                            "lat": 30.64734
                        },
                        {
                            "id": "MS2319",
                            "name": "MS2319(池州市)",
                            "lon": 117.57005,
                            "lat": 30.638282
                        },
                        {
                            "id": "MA0172",
                            "name": "MA0172(池州市)",
                            "lon": 117.856429,
                            "lat": 30.595822
                        }
                    ]
                },
                {
                    "route_id": 201,
                    "store_count": 6,
                    "total_distance_km": 0.0,
                    "total_time_h": 0.0,
                    "store_sequence": "TA0690(嘉兴市) - MA1231(嘉兴市) - TA0423(嘉兴市) - T457(嘉兴市) - TE103(嘉兴市) - TW0369(嘉兴市)",
                    "stores": [
                        {
                            "id": "TA0690",
                            "name": "TA0690(嘉兴市)",
                            "lon": 120.664123,
                            "lat": 30.681913
                        },
                        {
                            "id": "MA1231",
                            "name": "MA1231(嘉兴市)",
                            "lon": 120.72237,
                            "lat": 30.627033
                        },
                        {
                            "id": "TA0423",
                            "name": "TA0423(嘉兴市)",
                            "lon": 120.854591,
                            "lat": 30.742256
                        },
                        {
                            "id": "T457",
                            "name": "T457(嘉兴市)",
                            "lon": 121.014983,
                            "lat": 30.701991
                        },
                        {
                            "id": "TE103",
                            "name": "TE103(嘉兴市)",
                            "lon": 121.04421,
                            "lat": 30.697538
                        },
                        {
                            "id": "TW0369",
                            "name": "TW0369(嘉兴市)",
                            "lon": 120.892926,
                            "lat": 30.942933
                        }
                    ]
                },
                {
                    "route_id": 186,
                    "store_count": 12,
                    "total_distance_km": 0.0,
                    "total_time_h": 0.0,
                    "store_sequence": "M499(台州市) - ME337(台州市) - M570(台州市) - MS459(台州市) - M341(台州市) - MA0364(台州市) - MS706(台州市) - ME672(台州市) - MA1216(台州市) - M454(台州市) - M413(台州市) - MS970(台州市)",
                    "stores": [
                        {
                            "id": "M499",
                            "name": "M499(台州市)",
                            "lon": 121.212183,
                            "lat": 28.654713
                        },
                        {
                            "id": "ME337",
                            "name": "ME337(台州市)",
                            "lon": 121.222613,
                            "lat": 28.647869
                        },
                        {
                            "id": "M570",
                            "name": "M570(台州市)",
                            "lon": 121.26032,
                            "lat": 28.654294
                        },
                        {
                            "id": "MS459",
                            "name": "MS459(台州市)",
                            "lon": 121.273589,
                            "lat": 28.647489
                        },
                        {
                            "id": "M341",
                            "name": "M341(台州市)",
                            "lon": 121.25877,
                            "lat": 28.634997
                        },
                        {
                            "id": "MA0364",
                            "name": "MA0364(台州市)",
                            "lon": 121.254313,
                            "lat": 28.619921
                        },
                        {
                            "id": "MS706",
                            "name": "MS706(台州市)",
                            "lon": 121.345951,
                            "lat": 28.674466
                        },
                        {
                            "id": "ME672",
                            "name": "ME672(台州市)",
                            "lon": 121.447968,
                            "lat": 28.60911
                        },
                        {
                            "id": "MA1216",
                            "name": "MA1216(台州市)",
                            "lon": 121.385825,
                            "lat": 28.59998
                        },
                        {
                            "id": "M454",
                            "name": "M454(台州市)",
                            "lon": 121.377165,
                            "lat": 28.58969
                        },
                        {
                            "id": "M413",
                            "name": "M413(台州市)",
                            "lon": 121.368284,
                            "lat": 28.579732
                        },
                        {
                            "id": "MS970",
                            "name": "MS970(台州市)",
                            "lon": 121.379326,
                            "lat": 28.578234
                        }
                    ]
                },
                {
                    "route_id": 203,
                    "store_count": 7,
                    "total_distance_km": 0.0,
                    "total_time_h": 0.0,
                    "store_sequence": "MS2329(温州市) - ME408(温州市) - MS255(温州市) - MS185(温州市) - MS611(温州市) - ME1123(温州市) - M477(温州市)",
                    "stores": [
                        {
                            "id": "MS2329",
                            "name": "MS2329(温州市)",
                            "lon": 120.506777,
                            "lat": 28.06763
                        },
                        {
                            "id": "ME408",
                            "name": "ME408(温州市)",
                            "lon": 120.620057,
                            "lat": 27.960421
                        },
                        {
                            "id": "MS255",
                            "name": "MS255(温州市)",
                            "lon": 120.679148,
                            "lat": 27.968876
                        },
                        {
                            "id": "MS185",
                            "name": "MS185(温州市)",
                            "lon": 120.671562,
                            "lat": 27.974808
                        },
                        {
                            "id": "MS611",
                            "name": "MS611(温州市)",
                            "lon": 120.672897,
                            "lat": 27.964678
                        },
                        {
                            "id": "ME1123",
                            "name": "ME1123(温州市)",
                            "lon": 120.685973,
                            "lat": 27.952699
                        },
                        {
                            "id": "M477",
                            "name": "M477(温州市)",
                            "lon": 120.701326,
                            "lat": 27.911069
                        }
                    ]
                },
                {
                    "route_id": 323,
                    "store_count": 7,
                    "total_distance_km": 0.0,
                    "total_time_h": 0.0,
                    "store_sequence": "TS1119(宁德市) - M153(宁德市) - MS1574(宁德市) - MS1498(宁德市) - TS1023(宁德市) - MA1578(宁德市) - TE305(宁德市)",
                    "stores": [
                        {
                            "id": "TS1119",
                            "name": "TS1119(宁德市)",
                            "lon": 119.328845,
                            "lat": 27.104277
                        },
                        {
                            "id": "M153",
                            "name": "M153(宁德市)",
                            "lon": 119.681968,
                            "lat": 26.963428
                        },
                        {
                            "id": "MS1574",
                            "name": "MS1574(宁德市)",
                            "lon": 119.634448,
                            "lat": 26.912447
                        },
                        {
                            "id": "MS1498",
                            "name": "MS1498(宁德市)",
                            "lon": 119.716492,
                            "lat": 26.82583
                        },
                        {
                            "id": "TS1023",
                            "name": "TS1023(宁德市)",
                            "lon": 119.57142,
                            "lat": 26.718403
                        },
                        {
                            "id": "MA1578",
                            "name": "MA1578(宁德市)",
                            "lon": 119.533242,
                            "lat": 26.688508
                        },
                        {
                            "id": "TE305",
                            "name": "TE305(宁德市)",
                            "lon": 119.544884,
                            "lat": 26.647768
                        }
                    ]
                },
                {
                    "route_id": 328,
                    "store_count": 12,
                    "total_distance_km": 0.0,
                    "total_time_h": 0.0,
                    "store_sequence": "MS931(福州市) - MS027(福州市) - M414(福州市) - MW0943(福州市) - TS1018(福州市) - M39(福州市) - TA0470(福州市) - TS598(福州市) - T635(福州市) - TE084(福州市) - M808(福州市) - MA0135(福州市)",
                    "stores": [
                        {
                            "id": "MS931",
                            "name": "MS931(福州市)",
                            "lon": 119.58243,
                            "lat": 25.818228
                        },
                        {
                            "id": "MS027",
                            "name": "MS027(福州市)",
                            "lon": 119.552964,
                            "lat": 25.946977
                        },
                        {
                            "id": "M414",
                            "name": "M414(福州市)",
                            "lon": 119.517999,
                            "lat": 25.958143
                        },
                        {
                            "id": "MW0943",
                            "name": "MW0943(福州市)",
                            "lon": 119.48317,
                            "lat": 25.942053
                        },
                        {
                            "id": "TS1018",
                            "name": "TS1018(福州市)",
                            "lon": 119.37546,
                            "lat": 25.901139
                        },
                        {
                            "id": "M39",
                            "name": "M39(福州市)",
                            "lon": 119.379552,
                            "lat": 25.985477
                        },
                        {
                            "id": "TA0470",
                            "name": "TA0470(福州市)",
                            "lon": 119.456398,
                            "lat": 25.99013
                        },
                        {
                            "id": "TS598",
                            "name": "TS598(福州市)",
                            "lon": 119.418795,
                            "lat": 26.016684
                        },
                        {
                            "id": "T635",
                            "name": "T635(福州市)",
                            "lon": 119.395999,
                            "lat": 26.019516
                        },
                        {
                            "id": "TE084",
                            "name": "TE084(福州市)",
                            "lon": 119.32995,
                            "lat": 26.058647
                        },
                        {
                            "id": "M808",
                            "name": "M808(福州市)",
                            "lon": 119.342059,
                            "lat": 26.053784
                        },
                        {
                            "id": "MA0135",
                            "name": "MA0135(福州市)",
                            "lon": 119.336375,
                            "lat": 26.090808
                        }
                    ]
                },
                {
                    "route_id": 337,
                    "store_count": 6,
                    "total_distance_km": 0.0,
                    "total_time_h": 0.0,
                    "store_sequence": "MS2070(漳州市) - M231(漳州市) - MA1567(漳州市) - MW1090(厦门市) - M343(漳州市) - MA1109(漳州市)",
                    "stores": [
                        {
                            "id": "MS2070",
                            "name": "MS2070(漳州市)",
                            "lon": 117.854351,
                            "lat": 24.411348
                        },
                        {
                            "id": "M231",
                            "name": "M231(漳州市)",
                            "lon": 117.806921,
                            "lat": 24.441489
                        },
                        {
                            "id": "MA1567",
                            "name": "MA1567(漳州市)",
                            "lon": 117.895964,
                            "lat": 24.524415
                        },
                        {
                            "id": "MW1090",
                            "name": "MW1090(厦门市)",
                            "lon": 117.924468,
                            "lat": 24.551373
                        },
                        {
                            "id": "M343",
                            "name": "M343(漳州市)",
                            "lon": 117.790956,
                            "lat": 24.62124
                        },
                        {
                            "id": "MA1109",
                            "name": "MA1109(漳州市)",
                            "lon": 117.772296,
                            "lat": 24.744732
                        }
                    ]
                },
                {
                    "route_id": 123,
                    "store_count": 8,
                    "total_distance_km": 0.0,
                    "total_time_h": 0.0,
                    "store_sequence": "T681(汕头市) - T143(潮州市) - T210(揭阳市) - TW0575(揭阳市) - T445(揭阳市) - MW0700(梅州市) - MW0849(梅州市) - MW0287(梅州市)",
                    "stores": [
                        {
                            "id": "T681",
                            "name": "T681(汕头市)",
                            "lon": 116.75472,
                            "lat": 23.478838
                        },
                        {
                            "id": "T143",
                            "name": "T143(潮州市)",
                            "lon": 116.683021,
                            "lat": 23.45016
                        },
                        {
                            "id": "T210",
                            "name": "T210(揭阳市)",
                            "lon": 116.484896,
                            "lat": 23.507419
                        },
                        {
                            "id": "TW0575",
                            "name": "TW0575(揭阳市)",
                            "lon": 116.439824,
                            "lat": 23.561453
                        },
                        {
                            "id": "T445",
                            "name": "T445(揭阳市)",
                            "lon": 116.429082,
                            "lat": 23.576466
                        },
                        {
                            "id": "MW0700",
                            "name": "MW0700(梅州市)",
                            "lon": 116.171451,
                            "lat": 23.762058
                        },
                        {
                            "id": "MW0849",
                            "name": "MW0849(梅州市)",
                            "lon": 115.758691,
                            "lat": 23.928217
                        },
                        {
                            "id": "MW0287",
                            "name": "MW0287(梅州市)",
                            "lon": 115.775504,
                            "lat": 23.922143
                        }
                    ]
                }
            ],
            "total_cities": 8,
            "city_sequence": "合肥市 -> 嘉兴市 -> 台州市 -> 温州市 -> 宁德市 -> 福州市 -> 漳州市 -> 梅州市",
            "route_summary": {
                "total_routes": 376,
                "total_stores": 68,
                "total_distance_km": 151.9786083333333,
                "total_time_h": 151.9786083333333
            }
        },
        {
            "personnel_id": "3",
            "name": "江文莉",
            "ban_info": "范奇富|陆廷涛|陈晨|冯人杰",
            "ban_city": "南昌市|郴州市|抚州市|衡阳市|宜春市|桂林市|长沙市|益阳市|新余市",
            "work_day": "18",
            "efficiency": "3.75",
            "assigned_routes": [
                {
                    "route_id": 187,
                    "store_count": 12,
                    "total_distance_km": 0.0,
                    "total_time_h": 0.0,
                    "store_sequence": "T838(金华市) - T263(金华市) - T174(金华市) - TA0522(金华市) - T243(金华市) - M731(金华市) - M657(金华市) - M514(金华市) - M431(金华市) - TA0459(金华市) - TW0535(金华市) - M110(金华市)",
                    "stores": [
                        {
                            "id": "T838",
                            "name": "T838(金华市)",
                            "lon": 120.026494,
                            "lat": 28.896809
                        },
                        {
                            "id": "T263",
                            "name": "T263(金华市)",
                            "lon": 120.042902,
                            "lat": 28.90171
                        },
                        {
                            "id": "T174",
                            "name": "T174(金华市)",
                            "lon": 120.053944,
                            "lat": 28.886404
                        },
                        {
                            "id": "TA0522",
                            "name": "TA0522(金华市)",
                            "lon": 120.062458,
                            "lat": 28.894879
                        },
                        {
                            "id": "T243",
                            "name": "T243(金华市)",
                            "lon": 120.07085,
                            "lat": 28.922641
                        },
                        {
                            "id": "M731",
                            "name": "M731(金华市)",
                            "lon": 120.137952,
                            "lat": 28.940036
                        },
                        {
                            "id": "M657",
                            "name": "M657(金华市)",
                            "lon": 120.172013,
                            "lat": 28.955115
                        },
                        {
                            "id": "M514",
                            "name": "M514(金华市)",
                            "lon": 120.163177,
                            "lat": 28.978155
                        },
                        {
                            "id": "M431",
                            "name": "M431(金华市)",
                            "lon": 120.222593,
                            "lat": 29.115636
                        },
                        {
                            "id": "TA0459",
                            "name": "TA0459(金华市)",
                            "lon": 120.280686,
                            "lat": 29.152358
                        },
                        {
                            "id": "TW0535",
                            "name": "TW0535(金华市)",
                            "lon": 120.315732,
                            "lat": 29.153609
                        },
                        {
                            "id": "M110",
                            "name": "M110(金华市)",
                            "lon": 120.445074,
                            "lat": 29.051644
                        }
                    ]
                },
                {
                    "route_id": 282,
                    "store_count": 12,
                    "total_distance_km": 0.0,
                    "total_time_h": 0.0,
                    "store_sequence": "ME406(无锡市) - MS2049(无锡市) - MS1717(无锡市) - MS1211(无锡市) - MS1025(无锡市) - MS1391(无锡市) - MS2492(无锡市) - MS1164(无锡市) - TS040(无锡市) - MS1708(无锡市) - MS1700(无锡市) - MA0024(无锡市)",
                    "stores": [
                        {
                            "id": "ME406",
                            "name": "ME406(无锡市)",
                            "lon": 120.337977,
                            "lat": 31.590527
                        },
                        {
                            "id": "MS2049",
                            "name": "MS2049(无锡市)",
                            "lon": 120.355223,
                            "lat": 31.597548
                        },
                        {
                            "id": "MS1717",
                            "name": "MS1717(无锡市)",
                            "lon": 120.350548,
                            "lat": 31.572996
                        },
                        {
                            "id": "MS1211",
                            "name": "MS1211(无锡市)",
                            "lon": 120.337077,
                            "lat": 31.56771
                        },
                        {
                            "id": "MS1025",
                            "name": "MS1025(无锡市)",
                            "lon": 120.310553,
                            "lat": 31.549297
                        },
                        {
                            "id": "MS1391",
                            "name": "MS1391(无锡市)",
                            "lon": 120.295394,
                            "lat": 31.508172
                        },
                        {
                            "id": "MS2492",
                            "name": "MS2492(无锡市)",
                            "lon": 120.276218,
                            "lat": 31.530209
                        },
                        {
                            "id": "MS1164",
                            "name": "MS1164(无锡市)",
                            "lon": 120.264058,
                            "lat": 31.560591
                        },
                        {
                            "id": "TS040",
                            "name": "TS040(无锡市)",
                            "lon": 120.297119,
                            "lat": 31.576939
                        },
                        {
                            "id": "MS1708",
                            "name": "MS1708(无锡市)",
                            "lon": 120.242604,
                            "lat": 31.608501
                        },
                        {
                            "id": "MS1700",
                            "name": "MS1700(无锡市)",
                            "lon": 120.227345,
                            "lat": 31.574328
                        },
                        {
                            "id": "MA0024",
                            "name": "MA0024(无锡市)",
                            "lon": 120.137476,
                            "lat": 31.54489
                        }
                    ]
                },
                {
                    "route_id": 249,
                    "store_count": 12,
                    "total_distance_km": 0.0,
                    "total_time_h": 0.0,
                    "store_sequence": "ME1148(周口市) - MA0190(许昌市) - MW0362(许昌市) - MW1054(许昌市) - MS2451(许昌市) - MA0479(许昌市) - MS2104(许昌市) - MW0816(许昌市) - MA0423(漯河市) - MA1331(漯河市) - MW0284(漯河市) - MW0309(驻马店市)",
                    "stores": [
                        {
                            "id": "ME1148",
                            "name": "ME1148(周口市)",
                            "lon": 114.398162,
                            "lat": 34.060104
                        },
                        {
                            "id": "MA0190",
                            "name": "MA0190(许昌市)",
                            "lon": 114.192628,
                            "lat": 34.102349
                        },
                        {
                            "id": "MW0362",
                            "name": "MW0362(许昌市)",
                            "lon": 113.844639,
                            "lat": 34.09199
                        },
                        {
                            "id": "MW1054",
                            "name": "MW1054(许昌市)",
                            "lon": 113.847629,
                            "lat": 34.049424
                        },
                        {
                            "id": "MS2451",
                            "name": "MS2451(许昌市)",
                            "lon": 113.856801,
                            "lat": 34.041414
                        },
                        {
                            "id": "MA0479",
                            "name": "MA0479(许昌市)",
                            "lon": 113.843578,
                            "lat": 34.022412
                        },
                        {
                            "id": "MS2104",
                            "name": "MS2104(许昌市)",
                            "lon": 113.824678,
                            "lat": 34.017263
                        },
                        {
                            "id": "MW0816",
                            "name": "MW0816(许昌市)",
                            "lon": 113.832925,
                            "lat": 34.000945
                        },
                        {
                            "id": "MA0423",
                            "name": "MA0423(漯河市)",
                            "lon": 113.939558,
                            "lat": 33.810298
                        },
                        {
                            "id": "MA1331",
                            "name": "MA1331(漯河市)",
                            "lon": 113.959191,
                            "lat": 33.811303
                        },
                        {
                            "id": "MW0284",
                            "name": "MW0284(漯河市)",
                            "lon": 113.970683,
                            "lat": 33.57133
                        },
                        {
                            "id": "MW0309",
                            "name": "MW0309(驻马店市)",
                            "lon": 114.009389,
                            "lat": 33.387235
                        }
                    ]
                },
                {
                    "route_id": 64,
                    "store_count": 9,
                    "total_distance_km": 0.0,
                    "total_time_h": 0.0,
                    "store_sequence": "TA0393(阳泉市) - TW0054(阳泉市) - TW0623(太原市) - TA0170(太原市) - MW0815(太原市) - TA0114(晋中市) - TW0621(晋中市) - TW0159(晋中市) - TA0319(晋中市)",
                    "stores": [
                        {
                            "id": "TA0393",
                            "name": "TA0393(阳泉市)",
                            "lon": 113.586075,
                            "lat": 37.86548
                        },
                        {
                            "id": "TW0054",
                            "name": "TW0054(阳泉市)",
                            "lon": 113.404791,
                            "lat": 38.088089
                        },
                        {
                            "id": "TW0623",
                            "name": "TW0623(太原市)",
                            "lon": 112.600535,
                            "lat": 37.871754
                        },
                        {
                            "id": "TA0170",
                            "name": "TA0170(太原市)",
                            "lon": 112.603116,
                            "lat": 37.807121
                        },
                        {
                            "id": "MW0815",
                            "name": "MW0815(太原市)",
                            "lon": 112.600868,
                            "lat": 37.797571
                        },
                        {
                            "id": "TA0114",
                            "name": "TA0114(晋中市)",
                            "lon": 112.737762,
                            "lat": 37.704771
                        },
                        {
                            "id": "TW0621",
                            "name": "TW0621(晋中市)",
                            "lon": 112.748176,
                            "lat": 37.68843
                        },
                        {
                            "id": "TW0159",
                            "name": "TW0159(晋中市)",
                            "lon": 112.726093,
                            "lat": 37.682721
                        },
                        {
                            "id": "TA0319",
                            "name": "TA0319(晋中市)",
                            "lon": 112.728463,
                            "lat": 37.736438
                        }
                    ]
                },
                {
                    "route_id": 217,
                    "store_count": 15,
                    "total_distance_km": 0.0,
                    "total_time_h": 0.0,
                    "store_sequence": "MS2000(泰安市) - MS2421(泰安市) - TE155(泰安市) - T862(泰安市) - MW1041(泰安市) - MW1130(泰安市) - MA0026(泰安市) - MS1631(泰安市) - MS704(泰安市) - MS315(泰安市) - M944(泰安市) - MA1546(泰安市) - MS2497(泰安市) - MA0333(泰安市) - MW0189(泰安市)",
                    "stores": [
                        {
                            "id": "MS2000",
                            "name": "MS2000(泰安市)",
                            "lon": 116.755194,
                            "lat": 36.170199
                        },
                        {
                            "id": "MS2421",
                            "name": "MS2421(泰安市)",
                            "lon": 117.051752,
                            "lat": 36.175579
                        },
                        {
                            "id": "TE155",
                            "name": "TE155(泰安市)",
                            "lon": 117.06174,
                            "lat": 36.171851
                        },
                        {
                            "id": "T862",
                            "name": "T862(泰安市)",
                            "lon": 117.070134,
                            "lat": 36.163852
                        },
                        {
                            "id": "MW1041",
                            "name": "MW1041(泰安市)",
                            "lon": 117.073238,
                            "lat": 36.067244
                        },
                        {
                            "id": "MW1130",
                            "name": "MW1130(泰安市)",
                            "lon": 117.09008,
                            "lat": 36.05784
                        },
                        {
                            "id": "MA0026",
                            "name": "MA0026(泰安市)",
                            "lon": 117.102651,
                            "lat": 36.121648
                        },
                        {
                            "id": "MS1631",
                            "name": "MS1631(泰安市)",
                            "lon": 117.109193,
                            "lat": 36.154
                        },
                        {
                            "id": "MS704",
                            "name": "MS704(泰安市)",
                            "lon": 117.101372,
                            "lat": 36.183555
                        },
                        {
                            "id": "MS315",
                            "name": "MS315(泰安市)",
                            "lon": 117.116068,
                            "lat": 36.189361
                        },
                        {
                            "id": "M944",
                            "name": "M944(泰安市)",
                            "lon": 117.127477,
                            "lat": 36.187849
                        },
                        {
                            "id": "MA1546",
                            "name": "MA1546(泰安市)",
                            "lon": 117.146468,
                            "lat": 36.190905
                        },
                        {
                            "id": "MS2497",
                            "name": "MS2497(泰安市)",
                            "lon": 117.136152,
                            "lat": 36.198402
                        },
                        {
                            "id": "MA0333",
                            "name": "MA0333(泰安市)",
                            "lon": 117.125338,
                            "lat": 36.1556
                        },
                        {
                            "id": "MW0189",
                            "name": "MW0189(泰安市)",
                            "lon": 117.306774,
                            "lat": 35.863604
                        }
                    ]
                },
                {
                    "route_id": 262,
                    "store_count": 11,
                    "total_distance_km": 0.0,
                    "total_time_h": 0.0,
                    "store_sequence": "MW0766(商丘市) - MS013(商丘市) - TS113(开封市) - TS1085(开封市) - TA0311(开封市) - TS615(开封市) - MW1132(郑州市) - MS1793(郑州市) - MS2418(郑州市) - MA0463(郑州市) - MS1223(郑州市)",
                    "stores": [
                        {
                            "id": "MW0766",
                            "name": "MW0766(商丘市)",
                            "lon": 115.158481,
                            "lat": 34.64504
                        },
                        {
                            "id": "MS013",
                            "name": "MS013(商丘市)",
                            "lon": 115.079168,
                            "lat": 34.428174
                        },
                        {
                            "id": "TS113",
                            "name": "TS113(开封市)",
                            "lon": 114.465478,
                            "lat": 34.477155
                        },
                        {
                            "id": "TS1085",
                            "name": "TS1085(开封市)",
                            "lon": 114.470723,
                            "lat": 34.480145
                        },
                        {
                            "id": "TA0311",
                            "name": "TA0311(开封市)",
                            "lon": 114.207008,
                            "lat": 34.412803
                        },
                        {
                            "id": "TS615",
                            "name": "TS615(开封市)",
                            "lon": 114.184803,
                            "lat": 34.426987
                        },
                        {
                            "id": "MW1132",
                            "name": "MW1132(郑州市)",
                            "lon": 113.751438,
                            "lat": 34.379912
                        },
                        {
                            "id": "MS1793",
                            "name": "MS1793(郑州市)",
                            "lon": 113.73635,
                            "lat": 34.395621
                        },
                        {
                            "id": "MS2418",
                            "name": "MS2418(郑州市)",
                            "lon": 113.743449,
                            "lat": 34.419745
                        },
                        {
                            "id": "MA0463",
                            "name": "MA0463(郑州市)",
                            "lon": 113.758706,
                            "lat": 34.414144
                        },
                        {
                            "id": "MS1223",
                            "name": "MS1223(郑州市)",
                            "lon": 113.76244,
                            "lat": 34.401882
                        }
                    ]
                }
            ],
            "total_cities": 6,
            "city_sequence": "金华市 -> 无锡市 -> 许昌市 -> 晋中市 -> 泰安市 -> 郑州市",
            "route_summary": {
                "total_routes": 376,
                "total_stores": 71,
                "total_distance_km": 161.916598687066,
                "total_time_h": 161.916598687066
            }
        },
        {
            "personnel_id": "4",
            "name": "吴文芳",
            "ban_info": "范奇富|陆廷涛|冯人杰",
            "ban_city": "金华市|温州市|台州市|深圳市|中山市|江门市|丽水市|佛山市|东莞市",
            "work_day": "18",
            "efficiency": "3.75",
            "assigned_routes": [
                {
                    "route_id": 362,
                    "store_count": 12,
                    "total_distance_km": 0.0,
                    "total_time_h": 0.0,
                    "store_sequence": "TS1127(北京市) - TS1176(北京市) - TS1197(北京市) - TA0286(北京市) - TS1180(北京市) - TW0481(北京市) - TA0125(北京市) - TA0244(北京市) - TA0239(北京市) - TS1194(北京市) - TA0313(北京市) - TS1201(北京市)",
                    "stores": [
                        {
                            "id": "TS1127",
                            "name": "TS1127(北京市)",
                            "lon": 116.331015,
                            "lat": 39.753652
                        },
                        {
                            "id": "TS1176",
                            "name": "TS1176(北京市)",
                            "lon": 116.340232,
                            "lat": 39.731508
                        },
                        {
                            "id": "TS1197",
                            "name": "TS1197(北京市)",
                            "lon": 116.172318,
                            "lat": 39.724181
                        },
                        {
                            "id": "TA0286",
                            "name": "TA0286(北京市)",
                            "lon": 116.138838,
                            "lat": 39.735704
                        },
                        {
                            "id": "TS1180",
                            "name": "TS1180(北京市)",
                            "lon": 116.269162,
                            "lat": 39.866508
                        },
                        {
                            "id": "TW0481",
                            "name": "TW0481(北京市)",
                            "lon": 116.326877,
                            "lat": 39.865579
                        },
                        {
                            "id": "TA0125",
                            "name": "TA0125(北京市)",
                            "lon": 116.320817,
                            "lat": 39.845152
                        },
                        {
                            "id": "TA0244",
                            "name": "TA0244(北京市)",
                            "lon": 116.355807,
                            "lat": 39.861157
                        },
                        {
                            "id": "TA0239",
                            "name": "TA0239(北京市)",
                            "lon": 116.437829,
                            "lat": 39.893409
                        },
                        {
                            "id": "TS1194",
                            "name": "TS1194(北京市)",
                            "lon": 116.471771,
                            "lat": 39.892969
                        },
                        {
                            "id": "TA0313",
                            "name": "TA0313(北京市)",
                            "lon": 116.496421,
                            "lat": 39.876532
                        },
                        {
                            "id": "TS1201",
                            "name": "TS1201(北京市)",
                            "lon": 116.664731,
                            "lat": 39.876215
                        }
                    ]
                },
                {
                    "route_id": 2,
                    "store_count": 9,
                    "total_distance_km": 0.0,
                    "total_time_h": 0.0,
                    "store_sequence": "MW0225(锦州市) - MA1032(锦州市) - MA1338(鞍山市) - TS183(沈阳市) - TW0593(辽阳市) - TS548(鞍山市) - MS307(鞍山市) - TS1014(鞍山市) - TS583(鞍山市)",
                    "stores": [
                        {
                            "id": "MW0225",
                            "name": "MW0225(锦州市)",
                            "lon": 121.794729,
                            "lat": 41.593924
                        },
                        {
                            "id": "MA1032",
                            "name": "MA1032(锦州市)",
                            "lon": 122.122219,
                            "lat": 41.684335
                        },
                        {
                            "id": "MA1338",
                            "name": "MA1338(鞍山市)",
                            "lon": 122.430204,
                            "lat": 41.383417
                        },
                        {
                            "id": "TS183",
                            "name": "TS183(沈阳市)",
                            "lon": 122.733418,
                            "lat": 41.510436
                        },
                        {
                            "id": "TW0593",
                            "name": "TW0593(辽阳市)",
                            "lon": 123.081277,
                            "lat": 41.216241
                        },
                        {
                            "id": "TS548",
                            "name": "TS548(鞍山市)",
                            "lon": 123.054048,
                            "lat": 41.144876
                        },
                        {
                            "id": "MS307",
                            "name": "MS307(鞍山市)",
                            "lon": 123.060979,
                            "lat": 41.106127
                        },
                        {
                            "id": "TS1014",
                            "name": "TS1014(鞍山市)",
                            "lon": 123.002447,
                            "lat": 41.12151
                        },
                        {
                            "id": "TS583",
                            "name": "TS583(鞍山市)",
                            "lon": 122.979269,
                            "lat": 41.115646
                        }
                    ]
                },
                {
                    "route_id": 28,
                    "store_count": 9,
                    "total_distance_km": 0.0,
                    "total_time_h": 0.0,
                    "store_sequence": "TW0588(长春市) - TA0294(长春市) - TA0394(长春市) - MA0330(长春市) - TA0596(长春市) - TA0583(长春市) - TW0011(长春市) - TA0797(长春市) - TA0577(长春市)",
                    "stores": [
                        {
                            "id": "TW0588",
                            "name": "TW0588(长春市)",
                            "lon": 125.079768,
                            "lat": 43.714898
                        },
                        {
                            "id": "TA0294",
                            "name": "TA0294(长春市)",
                            "lon": 125.22603,
                            "lat": 43.791619
                        },
                        {
                            "id": "TA0394",
                            "name": "TA0394(长春市)",
                            "lon": 125.258248,
                            "lat": 43.818365
                        },
                        {
                            "id": "MA0330",
                            "name": "MA0330(长春市)",
                            "lon": 125.276421,
                            "lat": 43.821358
                        },
                        {
                            "id": "TA0596",
                            "name": "TA0596(长春市)",
                            "lon": 125.305573,
                            "lat": 43.86413
                        },
                        {
                            "id": "TA0583",
                            "name": "TA0583(长春市)",
                            "lon": 125.289208,
                            "lat": 43.864716
                        },
                        {
                            "id": "TW0011",
                            "name": "TW0011(长春市)",
                            "lon": 125.233116,
                            "lat": 43.851058
                        },
                        {
                            "id": "TA0797",
                            "name": "TA0797(长春市)",
                            "lon": 125.224083,
                            "lat": 43.839343
                        },
                        {
                            "id": "TA0577",
                            "name": "TA0577(长春市)",
                            "lon": 125.199656,
                            "lat": 43.853607
                        }
                    ]
                },
                {
                    "route_id": 14,
                    "store_count": 10,
                    "total_distance_km": 0.0,
                    "total_time_h": 0.0,
                    "store_sequence": "MA1105(哈尔滨市) - MA1001(哈尔滨市) - MA0307(哈尔滨市) - MW0658(哈尔滨市) - TA0572(哈尔滨市) - TA0146(哈尔滨市) - TA0271(哈尔滨市) - TA0720(哈尔滨市) - MW0295(哈尔滨市) - MA1038(哈尔滨市)",
                    "stores": [
                        {
                            "id": "MA1105",
                            "name": "MA1105(哈尔滨市)",
                            "lon": 128.331877,
                            "lat": 45.454241
                        },
                        {
                            "id": "MA1001",
                            "name": "MA1001(哈尔滨市)",
                            "lon": 127.966899,
                            "lat": 45.211327
                        },
                        {
                            "id": "MA0307",
                            "name": "MA0307(哈尔滨市)",
                            "lon": 127.159481,
                            "lat": 44.91978
                        },
                        {
                            "id": "MW0658",
                            "name": "MW0658(哈尔滨市)",
                            "lon": 126.870639,
                            "lat": 45.238098
                        },
                        {
                            "id": "TA0572",
                            "name": "TA0572(哈尔滨市)",
                            "lon": 126.72484,
                            "lat": 45.731407
                        },
                        {
                            "id": "TA0146",
                            "name": "TA0146(哈尔滨市)",
                            "lon": 126.666421,
                            "lat": 45.713248
                        },
                        {
                            "id": "TA0271",
                            "name": "TA0271(哈尔滨市)",
                            "lon": 126.689655,
                            "lat": 45.691679
                        },
                        {
                            "id": "TA0720",
                            "name": "TA0720(哈尔滨市)",
                            "lon": 126.6344,
                            "lat": 45.697333
                        },
                        {
                            "id": "MW0295",
                            "name": "MW0295(哈尔滨市)",
                            "lon": 126.306595,
                            "lat": 45.391073
                        },
                        {
                            "id": "MA1038",
                            "name": "MA1038(哈尔滨市)",
                            "lon": 126.3177,
                            "lat": 45.370029
                        }
                    ]
                },
                {
                    "route_id": 20,
                    "store_count": 4,
                    "total_distance_km": 0.0,
                    "total_time_h": 0.0,
                    "store_sequence": "TW0317(绥化市) - TW0514(绥化市) - MA1044(黑河市) - MA0948(黑河市)",
                    "stores": [
                        {
                            "id": "TW0317",
                            "name": "TW0317(绥化市)",
                            "lon": 125.910835,
                            "lat": 47.183397
                        },
                        {
                            "id": "TW0514",
                            "name": "TW0514(绥化市)",
                            "lon": 126.948876,
                            "lat": 47.456763
                        },
                        {
                            "id": "MA1044",
                            "name": "MA1044(黑河市)",
                            "lon": 127.51142,
                            "lat": 50.240816
                        },
                        {
                            "id": "MA0948",
                            "name": "MA0948(黑河市)",
                            "lon": 127.500013,
                            "lat": 50.248076
                        }
                    ]
                },
                {
                    "route_id": 23,
                    "store_count": 6,
                    "total_distance_km": 0.0,
                    "total_time_h": 0.0,
                    "store_sequence": "TW0625(呼伦贝尔市) - MW0280(呼伦贝尔市) - TW0126(呼伦贝尔市) - TW0121(呼伦贝尔市) - TW0503(呼伦贝尔市) - TW0203(呼伦贝尔市)",
                    "stores": [
                        {
                            "id": "TW0625",
                            "name": "TW0625(呼伦贝尔市)",
                            "lon": 121.534084,
                            "lat": 50.781572
                        },
                        {
                            "id": "MW0280",
                            "name": "MW0280(呼伦贝尔市)",
                            "lon": 119.779122,
                            "lat": 49.200757
                        },
                        {
                            "id": "TW0126",
                            "name": "TW0126(呼伦贝尔市)",
                            "lon": 119.768491,
                            "lat": 49.209151
                        },
                        {
                            "id": "TW0121",
                            "name": "TW0121(呼伦贝尔市)",
                            "lon": 123.470354,
                            "lat": 48.129299
                        },
                        {
                            "id": "TW0503",
                            "name": "TW0503(呼伦贝尔市)",
                            "lon": 124.508824,
                            "lat": 48.477352
                        },
                        {
                            "id": "TW0203",
                            "name": "TW0203(呼伦贝尔市)",
                            "lon": 124.610474,
                            "lat": 49.746112
                        }
                    ]
                }
            ],
            "total_cities": 6,
            "city_sequence": "北京市 -> 鞍山市 -> 长春市 -> 哈尔滨市 -> 绥化市 -> 呼伦贝尔市",
            "route_summary": {
                "total_routes": 376,
                "total_stores": 50,
                "total_distance_km": 162.4034562015063,
                "total_time_h": 162.4034562015063
            }
        },
        {
            "personnel_id": "5",
            "name": "廖友豪",
            "ban_info": "范奇富|陆廷涛|冯人杰",
            "ban_city": "娄底市|岳阳市|潮州市|广州市|河源市|长沙市|揭阳市",
            "work_day": "18",
            "efficiency": "3.75",
            "assigned_routes": [
                {
                    "route_id": 18,
                    "store_count": 9,
                    "total_distance_km": 0.0,
                    "total_time_h": 0.0,
                    "store_sequence": "TA0098(绥化市) - TA0088(哈尔滨市) - MW0759(哈尔滨市) - MA0625(哈尔滨市) - TA0796(哈尔滨市) - MA1254(哈尔滨市) - MA0878(哈尔滨市) - TA0536(哈尔滨市) - TA0621(哈尔滨市)",
                    "stores": [
                        {
                            "id": "TA0098",
                            "name": "TA0098(绥化市)",
                            "lon": 125.972574,
                            "lat": 46.060302
                        },
                        {
                            "id": "TA0088",
                            "name": "TA0088(哈尔滨市)",
                            "lon": 126.512177,
                            "lat": 45.875593
                        },
                        {
                            "id": "MW0759",
                            "name": "MW0759(哈尔滨市)",
                            "lon": 126.601208,
                            "lat": 45.82816
                        },
                        {
                            "id": "MA0625",
                            "name": "MA0625(哈尔滨市)",
                            "lon": 126.642121,
                            "lat": 45.782822
                        },
                        {
                            "id": "TA0796",
                            "name": "TA0796(哈尔滨市)",
                            "lon": 126.629229,
                            "lat": 45.769773
                        },
                        {
                            "id": "MA1254",
                            "name": "MA1254(哈尔滨市)",
                            "lon": 126.632681,
                            "lat": 45.761553
                        },
                        {
                            "id": "MA0878",
                            "name": "MA0878(哈尔滨市)",
                            "lon": 126.632617,
                            "lat": 45.743964
                        },
                        {
                            "id": "TA0536",
                            "name": "TA0536(哈尔滨市)",
                            "lon": 126.628873,
                            "lat": 45.745996
                        },
                        {
                            "id": "TA0621",
                            "name": "TA0621(哈尔滨市)",
                            "lon": 126.583419,
                            "lat": 45.748192
                        }
                    ]
                },
                {
                    "route_id": 15,
                    "store_count": 6,
                    "total_distance_km": 0.0,
                    "total_time_h": 0.0,
                    "store_sequence": "MA0952(牡丹江市) - MA1167(牡丹江市) - MA0393(牡丹江市) - MW0253(牡丹江市) - MA1303(牡丹江市) - MW0588(牡丹江市)",
                    "stores": [
                        {
                            "id": "MA0952",
                            "name": "MA0952(牡丹江市)",
                            "lon": 129.470123,
                            "lat": 44.34374
                        },
                        {
                            "id": "MA1167",
                            "name": "MA1167(牡丹江市)",
                            "lon": 129.391926,
                            "lat": 44.577574
                        },
                        {
                            "id": "MA0393",
                            "name": "MA0393(牡丹江市)",
                            "lon": 129.62033,
                            "lat": 44.578469
                        },
                        {
                            "id": "MW0253",
                            "name": "MW0253(牡丹江市)",
                            "lon": 130.525695,
                            "lat": 44.920094
                        },
                        {
                            "id": "MA1303",
                            "name": "MA1303(牡丹江市)",
                            "lon": 131.163828,
                            "lat": 44.396827
                        },
                        {
                            "id": "MW0588",
                            "name": "MW0588(牡丹江市)",
                            "lon": 131.128126,
                            "lat": 44.063179
                        }
                    ]
                },
                {
                    "route_id": 31,
                    "store_count": 9,
                    "total_distance_km": 0.0,
                    "total_time_h": 0.0,
                    "store_sequence": "TA0636(吉林市) - MW0547(吉林市) - MA0691(吉林市) - MW0239(吉林市) - MA0872(吉林市) - MA0301(吉林市) - MA0999(吉林市) - MA0575(吉林市) - MA0727(吉林市)",
                    "stores": [
                        {
                            "id": "TA0636",
                            "name": "TA0636(吉林市)",
                            "lon": 126.752161,
                            "lat": 42.968831
                        },
                        {
                            "id": "MW0547",
                            "name": "MW0547(吉林市)",
                            "lon": 126.52163,
                            "lat": 43.826353
                        },
                        {
                            "id": "MA0691",
                            "name": "MA0691(吉林市)",
                            "lon": 126.533334,
                            "lat": 43.830096
                        },
                        {
                            "id": "MW0239",
                            "name": "MW0239(吉林市)",
                            "lon": 126.54742,
                            "lat": 43.820784
                        },
                        {
                            "id": "MA0872",
                            "name": "MA0872(吉林市)",
                            "lon": 126.561575,
                            "lat": 43.808473
                        },
                        {
                            "id": "MA0301",
                            "name": "MA0301(吉林市)",
                            "lon": 126.565162,
                            "lat": 43.829741
                        },
                        {
                            "id": "MA0999",
                            "name": "MA0999(吉林市)",
                            "lon": 126.574556,
                            "lat": 43.857094
                        },
                        {
                            "id": "MA0575",
                            "name": "MA0575(吉林市)",
                            "lon": 126.614984,
                            "lat": 43.896
                        },
                        {
                            "id": "MA0727",
                            "name": "MA0727(吉林市)",
                            "lon": 127.342362,
                            "lat": 43.719113
                        }
                    ]
                },
                {
                    "route_id": 27,
                    "store_count": 8,
                    "total_distance_km": 0.0,
                    "total_time_h": 0.0,
                    "store_sequence": "MW0854(白山市) - MW0898(通化市) - MW0268(通化市) - MA1007(通化市) - MA1240(通化市) - MA0612(通化市) - MA0981(辽源市) - MA0485(辽源市)",
                    "stores": [
                        {
                            "id": "MW0854",
                            "name": "MW0854(白山市)",
                            "lon": 126.916786,
                            "lat": 41.810342
                        },
                        {
                            "id": "MW0898",
                            "name": "MW0898(通化市)",
                            "lon": 126.046774,
                            "lat": 41.775942
                        },
                        {
                            "id": "MW0268",
                            "name": "MW0268(通化市)",
                            "lon": 125.962049,
                            "lat": 41.73624
                        },
                        {
                            "id": "MA1007",
                            "name": "MA1007(通化市)",
                            "lon": 125.934579,
                            "lat": 41.70714
                        },
                        {
                            "id": "MA1240",
                            "name": "MA1240(通化市)",
                            "lon": 125.927659,
                            "lat": 41.721899
                        },
                        {
                            "id": "MA0612",
                            "name": "MA0612(通化市)",
                            "lon": 125.683867,
                            "lat": 42.531304
                        },
                        {
                            "id": "MA0981",
                            "name": "MA0981(辽源市)",
                            "lon": 125.529392,
                            "lat": 42.67409
                        },
                        {
                            "id": "MA0485",
                            "name": "MA0485(辽源市)",
                            "lon": 125.144034,
                            "lat": 42.901914
                        }
                    ]
                },
                {
                    "route_id": 33,
                    "store_count": 9,
                    "total_distance_km": 0.0,
                    "total_time_h": 0.0,
                    "store_sequence": "TA0677(长春市) - TW0129(长春市) - TW0574(长春市) - TW0284(长春市) - TW0624(长春市) - TW0161(长春市) - TA0555(长春市) - TA0419(长春市) - TA0122(长春市)",
                    "stores": [
                        {
                            "id": "TA0677",
                            "name": "TA0677(长春市)",
                            "lon": 125.666526,
                            "lat": 43.538397
                        },
                        {
                            "id": "TW0129",
                            "name": "TW0129(长春市)",
                            "lon": 125.416643,
                            "lat": 43.786772
                        },
                        {
                            "id": "TW0574",
                            "name": "TW0574(长春市)",
                            "lon": 125.40836,
                            "lat": 43.817056
                        },
                        {
                            "id": "TW0284",
                            "name": "TW0284(长春市)",
                            "lon": 125.41461,
                            "lat": 43.82362
                        },
                        {
                            "id": "TW0624",
                            "name": "TW0624(长春市)",
                            "lon": 125.429869,
                            "lat": 43.81993
                        },
                        {
                            "id": "TW0161",
                            "name": "TW0161(长春市)",
                            "lon": 125.31855,
                            "lat": 43.799308
                        },
                        {
                            "id": "TA0555",
                            "name": "TA0555(长春市)",
                            "lon": 125.339257,
                            "lat": 43.833967
                        },
                        {
                            "id": "TA0419",
                            "name": "TA0419(长春市)",
                            "lon": 125.320707,
                            "lat": 43.831887
                        },
                        {
                            "id": "TA0122",
                            "name": "TA0122(长春市)",
                            "lon": 125.327894,
                            "lat": 43.890897
                        }
                    ]
                },