{
    "summary": {
        "total_personnel": 58,
        "total_routes": 447
    },
    "personnel_route_assignments": [
        {
            "personnel_id": "0",
            "name": "陈益彬",
            "ban_info": "冯人杰",
            "ban_city": "保定市|潍坊市|北京市|淄博市|石家庄市",
            "work_day": "10",
            "efficiency": "3.75",
            "assigned_routes": [
                {
                    "route_id": 328,
                    "store_count": 8,
                    "total_distance_km": 0.0,
                    "total_time_h": 0.0,
                    "store_sequence": "ME1047(南通市) - ME1024(南通市) - T812(南通市) - M976(南通市) - ME161(南通市) - MS1975(南通市) - MS1038(南通市) - ME358(南通市)",
                    "stores": [
                        {
                            "id": "ME1047",
                            "name": "ME1047(南通市)",
                            "lon": 121.641944,
                            "lat": 31.817456
                        },
                        {
                            "id": "ME1024",
                            "name": "ME1024(南通市)",
                            "lon": 121.660997,
                            "lat": 31.788235
                        },
                        {
                            "id": "T812",
                            "name": "T812(南通市)",
                            "lon": 121.082641,
                            "lat": 31.963589
                        },
                        {
                            "id": "M976",
                            "name": "M976(南通市)",
                            "lon": 121.063928,
                            "lat": 31.961414
                        },
                        {
                            "id": "ME161",
                            "name": "ME161(南通市)",
                            "lon": 121.086046,
                            "lat": 32.061554
                        },
                        {
                            "id": "MS1975",
                            "name": "MS1975(南通市)",
                            "lon": 121.078842,
                            "lat": 32.087308
                        },
                        {
                            "id": "MS1038",
                            "name": "MS1038(南通市)",
                            "lon": 121.185387,
                            "lat": 32.303071
                        },
                        {
                            "id": "ME358",
                            "name": "ME358(南通市)",
                            "lon": 121.181061,
                            "lat": 32.318952
                        }
                    ]
                },
                {
                    "route_id": 353,
                    "store_count": 6,
                    "total_distance_km": 0.0,
                    "total_time_h": 0.0,
                    "store_sequence": "MA0555(上海市) - TA0453(上海市) - TA0533(上海市) - MA0899(上海市) - MA0719(上海市) - MW1101(上海市)",
                    "stores": [
                        {
                            "id": "MA0555",
                            "name": "MA0555(上海市)",
                            "lon": 121.412786,
                            "lat": 31.355039
                        },
                        {
                            "id": "TA0453",
                            "name": "TA0453(上海市)",
                            "lon": 121.371432,
                            "lat": 31.345613
                        },
                        {
                            "id": "TA0533",
                            "name": "TA0533(上海市)",
                            "lon": 121.385413,
                            "lat": 31.315848
                        },
                        {
                            "id": "MA0899",
                            "name": "MA0899(上海市)",
                            "lon": 121.361896,
                            "lat": 31.360611
                        },
                        {
                            "id": "MA0719",
                            "name": "MA0719(上海市)",
                            "lon": 121.349972,
                            "lat": 31.399883
                        },
                        {
                            "id": "MW1101",
                            "name": "MW1101(上海市)",
                            "lon": 121.154905,
                            "lat": 31.297643
                        }
                    ]
                },
                {
                    "route_id": 337,
                    "store_count": 6,
                    "total_distance_km": 0.0,
                    "total_time_h": 0.0,
                    "store_sequence": "MZ0018(无锡市) - MS1841(无锡市) - MS2118(无锡市) - MZ0006(常州市) - MZ0016(镇江市) - M433(镇江市)",
                    "stores": [
                        {
                            "id": "MZ0018",
                            "name": "MZ0018(无锡市)",
                            "lon": 119.834539,
                            "lat": 31.337374
                        },
                        {
                            "id": "MS1841",
                            "name": "MS1841(无锡市)",
                            "lon": 119.851174,
                            "lat": 31.363687
                        },
                        {
                            "id": "MS2118",
                            "name": "MS2118(无锡市)",
                            "lon": 119.71931,
                            "lat": 31.510702
                        },
                        {
                            "id": "MZ0006",
                            "name": "MZ0006(常州市)",
                            "lon": 119.623777,
                            "lat": 31.738832
                        },
                        {
                            "id": "MZ0016",
                            "name": "MZ0016(镇江市)",
                            "lon": 119.556915,
                            "lat": 32.000876
                        },
                        {
                            "id": "M433",
                            "name": "M433(镇江市)",
                            "lon": 119.609147,
                            "lat": 31.99602
                        }
                    ]
                },
                {
                    "route_id": 355,
                    "store_count": 6,
                    "total_distance_km": 0.0,
                    "total_time_h": 0.0,
                    "store_sequence": "MS1240(上海市) - MA0932(上海市) - MS275(上海市) - MS1318(上海市) - MS1541(上海市) - TW0633(上海市)",
                    "stores": [
                        {
                            "id": "MS1240",
                            "name": "MS1240(上海市)",
                            "lon": 121.259799,
                            "lat": 31.117084
                        },
                        {
                            "id": "MA0932",
                            "name": "MA0932(上海市)",
                            "lon": 121.270013,
                            "lat": 31.090561
                        },
                        {
                            "id": "MS275",
                            "name": "MS275(上海市)",
                            "lon": 121.241834,
                            "lat": 31.058321
                        },
                        {
                            "id": "MS1318",
                            "name": "MS1318(上海市)",
                            "lon": 121.219255,
                            "lat": 31.049584
                        },
                        {
                            "id": "MS1541",
                            "name": "MS1541(上海市)",
                            "lon": 121.231075,
                            "lat": 31.016326
                        },
                        {
                            "id": "TW0633",
                            "name": "TW0633(上海市)",
                            "lon": 121.127177,
                            "lat": 31.030998
                        }
                    ]
                },
                {
                    "route_id": 236,
                    "store_count": 6,
                    "total_distance_km": 0.0,
                    "total_time_h": 0.0,
                    "store_sequence": "MS2271(杭州市) - MS405(杭州市) - T412(杭州市) - M682(杭州市) - MW0032(杭州市) - M820(杭州市)",
                    "stores": [
                        {
                            "id": "MS2271",
                            "name": "MS2271(杭州市)",
                            "lon": 119.826393,
                            "lat": 30.257438
                        },
                        {
                            "id": "MS405",
                            "name": "MS405(杭州市)",
                            "lon": 119.72762,
                            "lat": 30.248164
                        },
                        {
                            "id": "T412",
                            "name": "T412(杭州市)",
                            "lon": 119.715742,
                            "lat": 30.232504
                        },
                        {
                            "id": "M682",
                            "name": "M682(杭州市)",
                            "lon": 119.706162,
                            "lat": 30.226455
                        },
                        {
                            "id": "MW0032",
                            "name": "MW0032(杭州市)",
                            "lon": 119.401917,
                            "lat": 30.180711
                        },
                        {
                            "id": "M820",
                            "name": "M820(杭州市)",
                            "lon": 119.441482,
                            "lat": 29.931379
                        }
                    ]
                },
                {
                    "route_id": 356,
                    "store_count": 6,
                    "total_distance_km": 0.0,
                    "total_time_h": 0.0,
                    "store_sequence": "ME764(上海市) - MS1487(上海市) - MW0376(上海市) - MW1220(上海市) - MS224(上海市) - ME554(上海市)",
                    "stores": [
                        {
                            "id": "ME764",
                            "name": "ME764(上海市)",
                            "lon": 121.244566,
                            "lat": 31.00567
                        },
                        {
                            "id": "MS1487",
                            "name": "MS1487(上海市)",
                            "lon": 121.235599,
                            "lat": 31.005546
                        },
                        {
                            "id": "MW0376",
                            "name": "MW0376(上海市)",
                            "lon": 121.165845,
                            "lat": 30.893134
                        },
                        {
                            "id": "MW1220",
                            "name": "MW1220(上海市)",
                            "lon": 121.313281,
                            "lat": 30.888111
                        },
                        {
                            "id": "MS224",
                            "name": "MS224(上海市)",
                            "lon": 121.304857,
                            "lat": 30.797977
                        },
                        {
                            "id": "ME554",
                            "name": "ME554(上海市)",
                            "lon": 121.33605,
                            "lat": 30.755697
                        }
                    ]
                }
            ],
            "total_cities": 6,
            "city_sequence": "南通市 -> 上海市 -> 无锡市 -> 上海市 -> 杭州市 -> 上海市",
            "route_summary": {
                "total_routes": 447,
                "total_stores": 38,
                "total_distance_km": 86.7951805555555,
                "total_time_h": 86.7951805555555
            }
        },
        {
            "personnel_id": "1",
            "name": "严生燚",
            "ban_info": "范奇富|陆廷涛|陈晨",
            "ban_city": "抚州市|武汉市|深圳市|鹰潭市|南昌市|合肥市|绍兴市",
            "work_day": "5",
            "efficiency": "3.75",
            "assigned_routes": [
                {
                    "route_id": 150,
                    "store_count": 5,
                    "total_distance_km": 0.0,
                    "total_time_h": 0.0,
                    "store_sequence": "M643(赣州市) - MW0947(赣州市) - ME063(赣州市) - M154(赣州市) - ME130(赣州市)",
                    "stores": [
                        {
                            "id": "M643",
                            "name": "M643(赣州市)",
                            "lon": 116.038902,
                            "lat": 25.870131
                        },
                        {
                            "id": "MW0947",
                            "name": "MW0947(赣州市)",
                            "lon": 115.787897,
                            "lat": 25.827896
                        },
                        {
                            "id": "ME063",
                            "name": "ME063(赣州市)",
                            "lon": 115.352645,
                            "lat": 26.3033
                        },
                        {
                            "id": "M154",
                            "name": "M154(赣州市)",
                            "lon": 115.354997,
                            "lat": 26.334471
                        },
                        {
                            "id": "ME130",
                            "name": "ME130(赣州市)",
                            "lon": 115.337017,
                            "lat": 26.328225
                        }
                    ]
                },
                {
                    "route_id": 144,
                    "store_count": 7,
                    "total_distance_km": 0.0,
                    "total_time_h": 0.0,
                    "store_sequence": "ME009(上饶市) - MW1118(上饶市) - ME999(上饶市) - T786(上饶市) - M280(上饶市) - MA0267(上饶市) - MA1469(上饶市)",
                    "stores": [
                        {
                            "id": "ME009",
                            "name": "ME009(上饶市)",
                            "lon": 117.451091,
                            "lat": 28.380314
                        },
                        {
                            "id": "MW1118",
                            "name": "MW1118(上饶市)",
                            "lon": 117.441988,
                            "lat": 28.386043
                        },
                        {
                            "id": "ME999",
                            "name": "ME999(上饶市)",
                            "lon": 117.453647,
                            "lat": 28.371013
                        },
                        {
                            "id": "T786",
                            "name": "T786(上饶市)",
                            "lon": 117.607921,
                            "lat": 28.414403
                        },
                        {
                            "id": "M280",
                            "name": "M280(上饶市)",
                            "lon": 117.713922,
                            "lat": 28.305441
                        },
                        {
                            "id": "MA0267",
                            "name": "MA0267(上饶市)",
                            "lon": 117.70966,
                            "lat": 28.311501
                        },
                        {
                            "id": "MA1469",
                            "name": "MA1469(上饶市)",
                            "lon": 117.773622,
                            "lat": 28.213254
                        }
                    ]
                },
                {
                    "route_id": 381,
                    "store_count": 9,
                    "total_distance_km": 0.0,
                    "total_time_h": 0.0,
                    "store_sequence": "MA1545(南平市) - M17(南平市) - MA0075(南平市) - MS136(南平市) - M384(南平市) - M85(三明市) - ME1138(三明市) - MS842(三明市) - M75(三明市)",
                    "stores": [
                        {
                            "id": "MA1545",
                            "name": "MA1545(南平市)",
                            "lon": 117.322102,
                            "lat": 27.537995
                        },
                        {
                            "id": "M17",
                            "name": "M17(南平市)",
                            "lon": 117.487631,
                            "lat": 27.338708
                        },
                        {
                            "id": "MA0075",
                            "name": "MA0075(南平市)",
                            "lon": 117.496362,
                            "lat": 27.345496
                        },
                        {
                            "id": "MS136",
                            "name": "MS136(南平市)",
                            "lon": 117.496254,
                            "lat": 27.329691
                        },
                        {
                            "id": "M384",
                            "name": "M384(南平市)",
                            "lon": 117.493081,
                            "lat": 27.325136
                        },
                        {
                            "id": "M85",
                            "name": "M85(三明市)",
                            "lon": 117.178006,
                            "lat": 26.896804
                        },
                        {
                            "id": "ME1138",
                            "name": "ME1138(三明市)",
                            "lon": 117.162665,
                            "lat": 26.891328
                        },
                        {
                            "id": "MS842",
                            "name": "MS842(三明市)",
                            "lon": 116.85,
                            "lat": 26.82
                        },
                        {
                            "id": "M75",
                            "name": "M75(三明市)",
                            "lon": 116.843955,
                            "lat": 26.828623
                        }
                    ]
                }
            ],
            "total_cities": 3,
            "city_sequence": "赣州市 -> 上饶市 -> 南平市",
            "route_summary": {
                "total_routes": 447,
                "total_stores": 21,
                "total_distance_km": 47.0929138888889,
                "total_time_h": 47.0929138888889
            }
        },
        {
            "personnel_id": "2",
            "name": "江文清",
            "ban_info": "nan",
            "ban_city": "广州市|海口市|儋州市|长沙市|南宁市|佛山市|屯昌县|常德市|澄迈县",
            "work_day": "20",
            "efficiency": "3.75",
            "assigned_routes": [
                {
                    "route_id": 143,
                    "store_count": 12,
                    "total_distance_km": 0.0,
                    "total_time_h": 0.0,
                    "store_sequence": "MW1164(九江市) - ME475(九江市) - ME257(南昌市) - ME634(南昌市) - T818(南昌市) - T396(南昌市) - TE249(南昌市) - T170(南昌市) - M468(南昌市) - T274(南昌市) - T182(南昌市) - MS995(南昌市)",
                    "stores": [
                        {
                            "id": "MW1164",
                            "name": "MW1164(九江市)",
                            "lon": 115.828512,
                            "lat": 29.020919
                        },
                        {
                            "id": "ME475",
                            "name": "ME475(九江市)",
                            "lon": 115.828889,
                            "lat": 29.010299
                        },
                        {
                            "id": "ME257",
                            "name": "ME257(南昌市)",
                            "lon": 115.967673,
                            "lat": 28.836101
                        },
                        {
                            "id": "ME634",
                            "name": "ME634(南昌市)",
                            "lon": 116.107341,
                            "lat": 28.726719
                        },
                        {
                            "id": "T818",
                            "name": "T818(南昌市)",
                            "lon": 115.984578,
                            "lat": 28.712621
                        },
                        {
                            "id": "T396",
                            "name": "T396(南昌市)",
                            "lon": 115.96993,
                            "lat": 28.713041
                        },
                        {
                            "id": "TE249",
                            "name": "TE249(南昌市)",
                            "lon": 115.952937,
                            "lat": 28.711246
                        },
                        {
                            "id": "T170",
                            "name": "T170(南昌市)",
                            "lon": 115.964058,
                            "lat": 28.679034
                        },
                        {
                            "id": "M468",
                            "name": "M468(南昌市)",
                            "lon": 115.968673,
                            "lat": 28.695078
                        },
                        {
                            "id": "T274",
                            "name": "T274(南昌市)",
                            "lon": 115.913332,
                            "lat": 28.672251
                        },
                        {
                            "id": "T182",
                            "name": "T182(南昌市)",
                            "lon": 115.911943,
                            "lat": 28.664164
                        },
                        {
                            "id": "MS995",
                            "name": "MS995(南昌市)",
                            "lon": 115.919128,
                            "lat": 28.661963
                        }
                    ]
                },
                {
                    "route_id": 374,
                    "store_count": 7,
                    "total_distance_km": 0.0,
                    "total_time_h": 0.0,
                    "store_sequence": "TS266(武汉市) - TS292(武汉市) - T938(武汉市) - MA1134(黄冈市) - T674(黄冈市) - MA0876(黄冈市) - T516(黄冈市)",
                    "stores": [
                        {
                            "id": "TS266",
                            "name": "TS266(武汉市)",
                            "lon": 114.799913,
                            "lat": 30.826737
                        },
                        {
                            "id": "TS292",
                            "name": "TS292(武汉市)",
                            "lon": 114.800551,
                            "lat": 30.84108
                        },
                        {
                            "id": "T938",
                            "name": "T938(武汉市)",
                            "lon": 114.808016,
                            "lat": 30.839568
                        },
                        {
                            "id": "MA1134",
                            "name": "MA1134(黄冈市)",
                            "lon": 114.798915,
                            "lat": 31.061899
                        },
                        {
                            "id": "T674",
                            "name": "T674(黄冈市)",
                            "lon": 115.008051,
                            "lat": 31.180832
                        },
                        {
                            "id": "MA0876",
                            "name": "MA0876(黄冈市)",
                            "lon": 115.026518,
                            "lat": 31.181671
                        },
                        {
                            "id": "T516",
                            "name": "T516(黄冈市)",
                            "lon": 115.03495,
                            "lat": 31.174745
                        }
                    ]
                },
                {
                    "route_id": 288,
                    "store_count": 6,
                    "total_distance_km": 0.0,
                    "total_time_h": 0.0,
                    "store_sequence": "MA0458(衡阳市) - M566(衡阳市) - MW0077(衡阳市) - MW1082(永州市) - MW1213(永州市) - MA0560(永州市)",
                    "stores": [
                        {
                            "id": "MA0458",
                            "name": "MA0458(衡阳市)",
                            "lon": 112.125767,
                            "lat": 26.783702
                        },
                        {
                            "id": "M566",
                            "name": "M566(衡阳市)",
                            "lon": 112.116538,
                            "lat": 26.786327
                        },
                        {
                            "id": "MW0077",
                            "name": "MW0077(衡阳市)",
                            "lon": 111.937568,
                            "lat": 26.780107
                        },
                        {
                            "id": "MW1082",
                            "name": "MW1082(永州市)",
                            "lon": 111.827737,
                            "lat": 26.699215
                        },
                        {
                            "id": "MW1213",
                            "name": "MW1213(永州市)",
                            "lon": 111.840046,
                            "lat": 26.574423
                        },
                        {
                            "id": "MA0560",
                            "name": "MA0560(永州市)",
                            "lon": 111.849757,
                            "lat": 26.559388
                        }
                    ]
                },
                {
                    "route_id": 291,
                    "store_count": 7,
                    "total_distance_km": 0.0,
                    "total_time_h": 0.0,
                    "store_sequence": "MA0275(郴州市) - ME505(郴州市) - MS1735(郴州市) - M780(郴州市) - ME0016(郴州市) - MS062(郴州市) - MW0259(郴州市)",
                    "stores": [
                        {
                            "id": "MA0275",
                            "name": "MA0275(郴州市)",
                            "lon": 112.896982,
                            "lat": 26.091452
                        },
                        {
                            "id": "ME505",
                            "name": "ME505(郴州市)",
                            "lon": 113.118125,
                            "lat": 26.124947
                        },
                        {
                            "id": "MS1735",
                            "name": "MS1735(郴州市)",
                            "lon": 113.114728,
                            "lat": 26.129058
                        },
                        {
                            "id": "M780",
                            "name": "M780(郴州市)",
                            "lon": 113.107056,
                            "lat": 26.125144
                        },
                        {
                            "id": "ME0016",
                            "name": "ME0016(郴州市)",
                            "lon": 113.233918,
                            "lat": 25.973118
                        },
                        {
                            "id": "MS062",
                            "name": "MS062(郴州市)",
                            "lon": 113.229142,
                            "lat": 25.941261
                        },
                        {
                            "id": "MW0259",
                            "name": "MW0259(郴州市)",
                            "lon": 113.255925,
                            "lat": 25.938609
                        }
                    ]
                },
                {
                    "route_id": 137,
                    "store_count": 5,
                    "total_distance_km": 0.0,
                    "total_time_h": 0.0,
                    "store_sequence": "MS2509(清远市) - ME454(清远市) - ME383(清远市) - MA0354(清远市) - ME094(清远市)",
                    "stores": [
                        {
                            "id": "MS2509",
                            "name": "MS2509(清远市)",
                            "lon": 113.103663,
                            "lat": 23.742617
                        },
                        {
                            "id": "ME454",
                            "name": "ME454(清远市)",
                            "lon": 113.020844,
                            "lat": 23.735408
                        },
                        {
                            "id": "ME383",
                            "name": "ME383(清远市)",
                            "lon": 113.003018,
                            "lat": 23.729588
                        },
                        {
                            "id": "MA0354",
                            "name": "MA0354(清远市)",
                            "lon": 112.288719,
                            "lat": 24.719007
                        },
                        {
                            "id": "ME094",
                            "name": "ME094(清远市)",
                            "lon": 112.381454,
                            "lat": 24.784175
                        }
                    ]
                },
                {
                    "route_id": 118,
                    "store_count": 8,
                    "total_distance_km": 0.0,
                    "total_time_h": 0.0,
                    "store_sequence": "TA0916(深圳市) - TE289(深圳市) - ME384(深圳市) - TW0260(深圳市) - TS1097(深圳市) - TE342(深圳市) - M811(深圳市) - ME133(深圳市)",
                    "stores": [
                        {
                            "id": "TA0916",
                            "name": "TA0916(深圳市)",
                            "lon": 114.156359,
                            "lat": 22.611697
                        },
                        {
                            "id": "TE289",
                            "name": "TE289(深圳市)",
                            "lon": 114.144043,
                            "lat": 22.60821
                        },
                        {
                            "id": "ME384",
                            "name": "ME384(深圳市)",
                            "lon": 114.15091,
                            "lat": 22.618356
                        },
                        {
                            "id": "TW0260",
                            "name": "TW0260(深圳市)",
                            "lon": 114.153185,
                            "lat": 22.650241
                        },
                        {
                            "id": "TS1097",
                            "name": "TS1097(深圳市)",
                            "lon": 114.131127,
                            "lat": 22.673839
                        },
                        {
                            "id": "TE342",
                            "name": "TE342(深圳市)",
                            "lon": 114.12508,
                            "lat": 22.677297
                        },
                        {
                            "id": "M811",
                            "name": "M811(深圳市)",
                            "lon": 114.133004,
                            "lat": 22.696311
                        },
                        {
                            "id": "ME133",
                            "name": "ME133(深圳市)",
                            "lon": 114.110054,
                            "lat": 22.697851
                        }
                    ]
                },
                {
                    "route_id": 134,
                    "store_count": 6,
                    "total_distance_km": 0.0,
                    "total_time_h": 0.0,
                    "store_sequence": "TA0198(惠州市) - T729(惠州市) - MS1656(东莞市) - MS2298(东莞市) - TA0158(东莞市) - TW0306(东莞市)",
                    "stores": [
                        {
                            "id": "TA0198",
                            "name": "TA0198(惠州市)",
                            "lon": 114.409669,
                            "lat": 22.718586
                        },
                        {
                            "id": "T729",
                            "name": "T729(惠州市)",
                            "lon": 114.333348,
                            "lat": 22.864144
                        },
                        {
                            "id": "MS1656",
                            "name": "MS1656(东莞市)",
                            "lon": 114.206648,
                            "lat": 22.718259
                        },
                        {
                            "id": "MS2298",
                            "name": "MS2298(东莞市)",
                            "lon": 114.159709,
                            "lat": 22.710362
                        },
                        {
                            "id": "TA0158",
                            "name": "TA0158(东莞市)",
                            "lon": 114.085301,
                            "lat": 22.771733
                        },
                        {
                            "id": "TW0306",
                            "name": "TW0306(东莞市)",
                            "lon": 114.101457,
                            "lat": 22.759836
                        }
                    ]
                },
                {
                    "route_id": 109,
                    "store_count": 6,
                    "total_distance_km": 0.0,
                    "total_time_h": 0.0,
                    "store_sequence": "TS367(深圳市) - TW0640(深圳市) - TS1029(深圳市) - ME469(深圳市) - MW0257(深圳市) - MA1602(深圳市)",
                    "stores": [
                        {
                            "id": "TS367",
                            "name": "TS367(深圳市)",
                            "lon": 114.306304,
                            "lat": 22.767435
                        },
                        {
                            "id": "TW0640",
                            "name": "TW0640(深圳市)",
                            "lon": 114.232698,
                            "lat": 22.746632
                        },
                        {
                            "id": "TS1029",
                            "name": "TS1029(深圳市)",
                            "lon": 114.227354,
                            "lat": 22.735428
                        },
                        {
                            "id": "ME469",
                            "name": "ME469(深圳市)",
                            "lon": 114.015994,
                            "lat": 22.743369
                        },
                        {
                            "id": "MW0257",
                            "name": "MW0257(深圳市)",
                            "lon": 114.057923,
                            "lat": 22.742838
                        },
                        {
                            "id": "MA1602",
                            "name": "MA1602(深圳市)",
                            "lon": 114.071561,
                            "lat": 22.71506
                        }
                    ]
                },
                {
                    "route_id": 142,
                    "store_count": 7,
                    "total_distance_km": 0.0,
                    "total_time_h": 0.0,
                    "store_sequence": "TA0589(东莞市) - M670(东莞市) - TA0665(东莞市) - TS855(东莞市) - TA0315(东莞市) - TA0148(东莞市) - MS749(东莞市)",
                    "stores": [
                        {
                            "id": "TA0589",
                            "name": "TA0589(东莞市)",
                            "lon": 114.106352,
                            "lat": 22.829505
                        },
                        {
                            "id": "M670",
                            "name": "M670(东莞市)",
                            "lon": 114.09792,
                            "lat": 22.820927
                        },
                        {
                            "id": "TA0665",
                            "name": "TA0665(东莞市)",
                            "lon": 114.102045,
                            "lat": 22.809347
                        },
                        {
                            "id": "TS855",
                            "name": "TS855(东莞市)",
                            "lon": 114.095658,
                            "lat": 22.803969
                        },
                        {
                            "id": "TA0315",
                            "name": "TA0315(东莞市)",
                            "lon": 114.078501,
                            "lat": 22.808549
                        },
                        {
                            "id": "TA0148",
                            "name": "TA0148(东莞市)",
                            "lon": 114.049696,
                            "lat": 22.798057
                        },
                        {
                            "id": "MS749",
                            "name": "MS749(东莞市)",
                            "lon": 113.976571,
                            "lat": 22.835234
                        }
                    ]
                },
                {
                    "route_id": 446,
                    "store_count": 6,
                    "total_distance_km": 0.0,
                    "total_time_h": 0.0,
                    "store_sequence": "T793(茂名市) - TS882(茂名市) - TS251(茂名市) - T374(茂名市) - T504(茂名市) - TS489(茂名市)",
                    "stores": [
                        {
                            "id": "T793",
                            "name": "T793(茂名市)",
                            "lon": 111.012112,
                            "lat": 21.529622
                        },
                        {
                            "id": "TS882",
                            "name": "TS882(茂名市)",
                            "lon": 111.009108,
                            "lat": 21.505876
                        },
                        {
                            "id": "TS251",
                            "name": "TS251(茂名市)",
                            "lon": 111.00274,
                            "lat": 21.507098
                        },
                        {
                            "id": "T374",
                            "name": "T374(茂名市)",
                            "lon": 110.924058,
                            "lat": 21.67479
                        },
                        {
                            "id": "T504",
                            "name": "T504(茂名市)",
                            "lon": 110.913992,
                            "lat": 21.654858
                        },
                        {
                            "id": "TS489",
                            "name": "TS489(茂名市)",
                            "lon": 110.622767,
                            "lat": 21.66264
                        }
                    ]
                },
                {
                    "route_id": 443,
                    "store_count": 5,
                    "total_distance_km": 0.0,
                    "total_time_h": 0.0,
                    "store_sequence": "T357(湛江市) - TS874(湛江市) - TW0236(湛江市) - T216(湛江市) - T498(湛江市)",
                    "stores": [
                        {
                            "id": "T357",
                            "name": "T357(湛江市)",
                            "lon": 110.778979,
                            "lat": 21.417681
                        },
                        {
                            "id": "TS874",
                            "name": "TS874(湛江市)",
                            "lon": 110.498675,
                            "lat": 21.256801
                        },
                        {
                            "id": "TW0236",
                            "name": "TW0236(湛江市)",
                            "lon": 110.444403,
                            "lat": 21.257231
                        },
                        {
                            "id": "T216",
                            "name": "T216(湛江市)",
                            "lon": 110.406602,
                            "lat": 21.248384
                        },
                        {
                            "id": "T498",
                            "name": "T498(湛江市)",
                            "lon": 110.082077,
                            "lat": 20.908482
                        }
                    ]
                }
            ],
            "total_cities": 11,
            "city_sequence": "南昌市 -> 黄冈市 -> 衡阳市 -> 郴州市 -> 清远市 -> 深圳市 -> 东莞市 -> 深圳市 -> 东莞市 -> 茂名市 -> 湛江市",
            "route_summary": {
                "total_routes": 447,
                "total_stores": 75,
                "total_distance_km": 171.451686111111,
                "total_time_h": 171.451686111111
            }
        },
        {
            "personnel_id": "3",
            "name": "连雨欣",
            "ban_info": "nan",
            "ban_city": "哈尔滨市|锦州市|松原市|白城市|盘锦市|抚顺市|大连市|绥化市|大庆市|营口市|沈阳市",
            "work_day": "20",
            "efficiency": "3.75",
            "assigned_routes": [
                {
                    "route_id": 292,
                    "store_count": 5,
                    "total_distance_km": 0.0,
                    "total_time_h": 0.0,
                    "store_sequence": "TA0872(岳阳市) - M637(岳阳市) - T463(岳阳市) - TW0371(岳阳市) - TA0644(岳阳市)",
                    "stores": [
                        {
                            "id": "TA0872",
                            "name": "TA0872(岳阳市)",
                            "lon": 113.360337,
                            "lat": 29.535286
                        },
                        {
                            "id": "M637",
                            "name": "M637(岳阳市)",
                            "lon": 113.48398,
                            "lat": 29.471938
                        },
                        {
                            "id": "T463",
                            "name": "T463(岳阳市)",
                            "lon": 113.081948,
                            "lat": 28.801993
                        },
                        {
                            "id": "TW0371",
                            "name": "TW0371(岳阳市)",
                            "lon": 113.158066,
                            "lat": 28.772771
                        },
                        {
                            "id": "TA0644",
                            "name": "TA0644(岳阳市)",
                            "lon": 112.907675,
                            "lat": 28.685978
                        }
                    ]
                },
                {
                    "route_id": 117,
                    "store_count": 7,
                    "total_distance_km": 0.0,
                    "total_time_h": 0.0,
                    "store_sequence": "MS2014(广州市) - ME1015(广州市) - MW0129(广州市) - MS691(广州市) - MS2541(广州市) - ME097(广州市) - ME031(广州市)",
                    "stores": [
                        {
                            "id": "MS2014",
                            "name": "MS2014(广州市)",
                            "lon": 113.33876,
                            "lat": 22.837868
                        },
                        {
                            "id": "ME1015",
                            "name": "ME1015(广州市)",
                            "lon": 113.405055,
                            "lat": 22.800756
                        },
                        {
                            "id": "MW0129",
                            "name": "MW0129(广州市)",
                            "lon": 113.456359,
                            "lat": 22.851903
                        },
                        {
                            "id": "MS691",
                            "name": "MS691(广州市)",
                            "lon": 113.458775,
                            "lat": 22.884239
                        },
                        {
                            "id": "MS2541",
                            "name": "MS2541(广州市)",
                            "lon": 113.402807,
                            "lat": 22.889469
                        },
                        {
                            "id": "ME097",
                            "name": "ME097(广州市)",
                            "lon": 113.35093,
                            "lat": 23.007297
                        },
                        {
                            "id": "ME031",
                            "name": "ME031(广州市)",
                            "lon": 113.320029,
                            "lat": 23.039813
                        }
                    ]
                },
                {
                    "route_id": 139,
                    "store_count": 6,
                    "total_distance_km": 0.0,
                    "total_time_h": 0.0,
                    "store_sequence": "MS2098(韶关市) - MW0974(韶关市) - ME645(韶关市) - M903(河源市) - MS2170(河源市) - ME1113(河源市)",
                    "stores": [
                        {
                            "id": "MS2098",
                            "name": "MS2098(韶关市)",
                            "lon": 114.117448,
                            "lat": 24.358568
                        },
                        {
                            "id": "MW0974",
                            "name": "MW0974(韶关市)",
                            "lon": 114.126554,
                            "lat": 24.357349
                        },
                        {
                            "id": "ME645",
                            "name": "ME645(韶关市)",
                            "lon": 114.133075,
                            "lat": 24.349906
                        },
                        {
                            "id": "M903",
                            "name": "M903(河源市)",
                            "lon": 114.723965,
                            "lat": 24.211989
                        },
                        {
                            "id": "MS2170",
                            "name": "MS2170(河源市)",
                            "lon": 115.248632,
                            "lat": 24.088596
                        },
                        {
                            "id": "ME1113",
                            "name": "ME1113(河源市)",
                            "lon": 115.250996,
                            "lat": 24.109239
                        }
                    ]
                },
                {
                    "route_id": 140,
                    "store_count": 6,
                    "total_distance_km": 0.0,
                    "total_time_h": 0.0,
                    "store_sequence": "ME068(惠州市) - MW0409(韶关市) - ME886(韶关市) - ME1131(清远市) - ME147(清远市) - MA1445(清远市)",
                    "stores": [
                        {
                            "id": "ME068",
                            "name": "ME068(惠州市)",
                            "lon": 114.258892,
                            "lat": 23.725592
                        },
                        {
                            "id": "MW0409",
                            "name": "MW0409(韶关市)",
                            "lon": 114.204493,
                            "lat": 24.055303
                        },
                        {
                            "id": "ME886",
                            "name": "ME886(韶关市)",
                            "lon": 114.209974,
                            "lat": 24.060891
                        },
                        {
                            "id": "ME1131",
                            "name": "ME1131(清远市)",
                            "lon": 113.53625,
                            "lat": 23.86717
                        },
                        {
                            "id": "ME147",
                            "name": "ME147(清远市)",
                            "lon": 113.532235,
                            "lat": 23.869302
                        },
                        {
                            "id": "MA1445",
                            "name": "MA1445(清远市)",
                            "lon": 113.407336,
                            "lat": 24.19487
                        }
                    ]
                },
                {
                    "route_id": 113,
                    "store_count": 7,
                    "total_distance_km": 0.0,
                    "total_time_h": 0.0,
                    "store_sequence": "MA0193(广州市) - ME839(广州市) - MA1642(广州市) - MW1079(广州市) - TA0914(广州市) - TW0227(广州市) - TW0085(广州市)",
                    "stores": [
                        {
                            "id": "MA0193",
                            "name": "MA0193(广州市)",
                            "lon": 113.476908,
                            "lat": 23.406925
                        },
                        {
                            "id": "ME839",
                            "name": "ME839(广州市)",
                            "lon": 113.482874,
                            "lat": 23.431007
                        },
                        {
                            "id": "MA1642",
                            "name": "MA1642(广州市)",
                            "lon": 113.445268,
                            "lat": 23.373443
                        },
                        {
                            "id": "MW1079",
                            "name": "MW1079(广州市)",
                            "lon": 113.419813,
                            "lat": 23.425397
                        },
                        {
                            "id": "TA0914",
                            "name": "TA0914(广州市)",
                            "lon": 113.410029,
                            "lat": 23.381311
                        },
                        {
                            "id": "TW0227",
                            "name": "TW0227(广州市)",
                            "lon": 113.356022,
                            "lat": 23.367171
                        },
                        {
                            "id": "TW0085",
                            "name": "TW0085(广州市)",
                            "lon": 113.295881,
                            "lat": 23.345255
                        }
                    ]
                },
                {
                    "route_id": 433,
                    "store_count": 6,
                    "total_distance_km": 0.0,
                    "total_time_h": 0.0,
                    "store_sequence": "ME827(江门市) - MS126(江门市) - MW0037(江门市) - MS501(江门市) - TW0540(阳江市) - TA0285(阳江市)",
                    "stores": [
                        {
                            "id": "ME827",
                            "name": "ME827(江门市)",
                            "lon": 112.791079,
                            "lat": 22.249099
                        },
                        {
                            "id": "MS126",
                            "name": "MS126(江门市)",
                            "lon": 112.690018,
                            "lat": 22.374215
                        },
                        {
                            "id": "MW0037",
                            "name": "MW0037(江门市)",
                            "lon": 112.589326,
                            "lat": 22.322934
                        },
                        {
                            "id": "MS501",
                            "name": "MS501(江门市)",
                            "lon": 112.311633,
                            "lat": 22.181189
                        },
                        {
                            "id": "TW0540",
                            "name": "TW0540(阳江市)",
                            "lon": 111.953915,
                            "lat": 21.872197
                        },
                        {
                            "id": "TA0285",
                            "name": "TA0285(阳江市)",
                            "lon": 111.833653,
                            "lat": 21.572187
                        }
                    ]
                },
                {
                    "route_id": 115,
                    "store_count": 7,
                    "total_distance_km": 0.0,
                    "total_time_h": 0.0,
                    "store_sequence": "MS051(广州市) - M831(广州市) - ME889(广州市) - MS252(广州市) - TA0588(广州市) - TS186(广州市) - ME757(广州市)",
                    "stores": [
                        {
                            "id": "MS051",
                            "name": "MS051(广州市)",
                            "lon": 113.293699,
                            "lat": 23.034232
                        },
                        {
                            "id": "M831",
                            "name": "M831(广州市)",
                            "lon": 113.299942,
                            "lat": 23.043373
                        },
                        {
                            "id": "ME889",
                            "name": "ME889(广州市)",
                            "lon": 113.311123,
                            "lat": 23.025831
                        },
                        {
                            "id": "MS252",
                            "name": "MS252(广州市)",
                            "lon": 113.326452,
                            "lat": 23.025032
                        },
                        {
                            "id": "TA0588",
                            "name": "TA0588(广州市)",
                            "lon": 113.318962,
                            "lat": 23.018399
                        },
                        {
                            "id": "TS186",
                            "name": "TS186(广州市)",
                            "lon": 113.32526,
                            "lat": 23.01038
                        },
                        {
                            "id": "ME757",
                            "name": "ME757(广州市)",
                            "lon": 113.297885,
                            "lat": 23.009381
                        }
                    ]
                },
                {
                    "route_id": 439,
                    "store_count": 6,
                    "total_distance_km": 0.0,
                    "total_time_h": 0.0,
                    "store_sequence": "MS431(佛山市) - ME319(佛山市) - MS2224(佛山市) - TW0198(佛山市) - MS2313(佛山市) - MW0334(佛山市)",
                    "stores": [
                        {
                            "id": "MS431",
                            "name": "MS431(佛山市)",
                            "lon": 113.082161,
                            "lat": 23.036291
                        },
                        {
                            "id": "ME319",
                            "name": "ME319(佛山市)",
                            "lon": 113.05504,
                            "lat": 23.024499
                        },
                        {
                            "id": "MS2224",
                            "name": "MS2224(佛山市)",
                            "lon": 113.036976,
                            "lat": 23.002864
                        },
                        {
                            "id": "TW0198",
                            "name": "TW0198(佛山市)",
                            "lon": 112.954065,
                            "lat": 22.959942
                        },
                        {
                            "id": "MS2313",
                            "name": "MS2313(佛山市)",
                            "lon": 112.822892,
                            "lat": 22.99637
                        },
                        {
                            "id": "MW0334",
                            "name": "MW0334(佛山市)",
                            "lon": 112.82493,
                            "lat": 22.892036
                        }
                    ]
                },
                {
                    "route_id": 94,
                    "store_count": 11,
                    "total_distance_km": 0.0,
                    "total_time_h": 0.0,
                    "store_sequence": "M741(广州市) - MS479(广州市) - ME514(广州市) - MS826(广州市) - MS1034(广州市) - ME487(广州市) - MS646(广州市) - MS700(广州市) - MA0048(广州市) - M754(广州市) - ME789(广州市)",
                    "stores": [
                        {
                            "id": "M741",
                            "name": "M741(广州市)",
                            "lon": 113.316775,
                            "lat": 22.97675
                        },
                        {
                            "id": "MS479",
                            "name": "MS479(广州市)",
                            "lon": 113.324893,
                            "lat": 22.970483
                        },
                        {
                            "id": "ME514",
                            "name": "ME514(广州市)",
                            "lon": 113.30638,
                            "lat": 22.971246
                        },
                        {
                            "id": "MS826",
                            "name": "MS826(广州市)",
                            "lon": 113.280794,
                            "lat": 22.985374
                        },
                        {
                            "id": "MS1034",
                            "name": "MS1034(广州市)",
                            "lon": 113.195331,
                            "lat": 23.071654
                        },
                        {
                            "id": "ME487",
                            "name": "ME487(广州市)",
                            "lon": 113.233944,
                            "lat": 23.094818
                        },
                        {
                            "id": "MS646",
                            "name": "MS646(广州市)",
                            "lon": 113.22288,
                            "lat": 23.121653
                        },
                        {
                            "id": "MS700",
                            "name": "MS700(广州市)",
                            "lon": 113.237033,
                            "lat": 23.110692
                        },
                        {
                            "id": "MA0048",
                            "name": "MA0048(广州市)",
                            "lon": 113.256991,
                            "lat": 23.10313
                        },
                        {
                            "id": "M754",
                            "name": "M754(广州市)",
                            "lon": 113.26687,
                            "lat": 23.093975
                        },
                        {
                            "id": "ME789",
                            "name": "ME789(广州市)",
                            "lon": 113.260419,
                            "lat": 23.089214
                        }
                    ]
                },
                {
                    "route_id": 444,
                    "store_count": 6,
                    "total_distance_km": 0.0,
                    "total_time_h": 0.0,
                    "store_sequence": "TS1146(佛山市) - TS133(佛山市) - T807(佛山市) - TW0207(佛山市) - ME630(佛山市) - TW0473(佛山市)",
                    "stores": [
                        {
                            "id": "TS1146",
                            "name": "TS1146(佛山市)",
                            "lon": 113.135177,
                            "lat": 23.249855
                        },
                        {
                            "id": "TS133",
                            "name": "TS133(佛山市)",
                            "lon": 113.004899,
                            "lat": 23.122554
                        },
                        {
                            "id": "T807",
                            "name": "T807(佛山市)",
                            "lon": 113.039121,
                            "lat": 23.0582
                        },
                        {
                            "id": "TW0207",
                            "name": "TW0207(佛山市)",
                            "lon": 113.185222,
                            "lat": 23.031335
                        },
                        {
                            "id": "ME630",
                            "name": "ME630(佛山市)",
                            "lon": 113.194047,
                            "lat": 23.021768
                        },
                        {
                            "id": "TW0473",
                            "name": "TW0473(佛山市)",
                            "lon": 113.23183,
                            "lat": 23.004834
                        }
                    ]
                },
                {
                    "route_id": 116,
                    "store_count": 7,
                    "total_distance_km": 0.0,
                    "total_time_h": 0.0,
                    "store_sequence": "MA0879(广州市) - MW0051(广州市) - MS280(广州市) - MW1345(广州市) - ME537(广州市) - MA1230(广州市) - MA0174(广州市)",
                    "stores": [
                        {
                            "id": "MA0879",
                            "name": "MA0879(广州市)",
                            "lon": 113.404502,
                            "lat": 23.012202
                        },
                        {
                            "id": "MW0051",
                            "name": "MW0051(广州市)",
                            "lon": 113.417057,
                            "lat": 23.037145
                        },
                        {
                            "id": "MS280",
                            "name": "MS280(广州市)",
                            "lon": 113.450192,
                            "lat": 23.042852
                        },
                        {
                            "id": "MW1345",
                            "name": "MW1345(广州市)",
                            "lon": 113.502769,
                            "lat": 23.016854
                        },
                        {
                            "id": "ME537",
                            "name": "ME537(广州市)",
                            "lon": 113.4851,
                            "lat": 22.970867
                        },
                        {
                            "id": "MA1230",
                            "name": "MA1230(广州市)",
                            "lon": 113.46796,
                            "lat": 22.960463
                        },
                        {
                            "id": "MA0174",
                            "name": "MA0174(广州市)",
                            "lon": 113.484027,
                            "lat": 22.944883
                        }
                    ]
                },
                {
                    "route_id": 437,
                    "store_count": 10,
                    "total_distance_km": 0.0,
                    "total_time_h": 0.0,
                    "store_sequence": "T332(茂名市) - TA0190(茂名市) - T499(茂名市) - TW0210(茂名市) - TS1198(茂名市) - TW0338(阳江市) - TW0771(阳江市) - TA0461(阳江市) - T534(阳江市) - TW0727(阳江市)",
                    "stores": [
                        {
                            "id": "T332",
                            "name": "T332(茂名市)",
                            "lon": 110.943758,
                            "lat": 22.350918
                        },
                        {
                            "id": "TA0190",
                            "name": "TA0190(茂名市)",
                            "lon": 110.951854,
                            "lat": 22.335939
                        },
                        {
                            "id": "T499",
                            "name": "T499(茂名市)",
                            "lon": 110.85242,
                            "lat": 21.914757
                        },
                        {
                            "id": "TW0210",
                            "name": "TW0210(茂名市)",
                            "lon": 110.952327,
                            "lat": 21.664969
                        },
                        {
                            "id": "TS1198",
                            "name": "TS1198(茂名市)",
                            "lon": 110.95788,
                            "lat": 21.654461
                        },
                        {
                            "id": "TW0338",
                            "name": "TW0338(阳江市)",
                            "lon": 111.617741,
                            "lat": 21.763011
                        },
                        {
                            "id": "TW0771",
                            "name": "TW0771(阳江市)",
                            "lon": 111.612357,
                            "lat": 22.042828
                        },
                        {
                            "id": "TA0461",
                            "name": "TA0461(阳江市)",
                            "lon": 111.781662,
                            "lat": 22.16716
                        },
                        {
                            "id": "T534",
                            "name": "T534(阳江市)",
                            "lon": 111.80231,
                            "lat": 22.160206
                        },
                        {
                            "id": "TW0727",
                            "name": "TW0727(阳江市)",
                            "lon": 111.942053,
                            "lat": 22.444762
                        }
                    ]
                }
            ],
            "total_cities": 12,
            "city_sequence": "岳阳市 -> 广州市 -> 韶关市 -> 清远市 -> 广州市 -> 江门市 -> 广州市 -> 佛山市 -> 广州市 -> 佛山市 -> 广州市 -> 茂名市",
            "route_summary": {
                "total_routes": 447,
                "total_stores": 84,
                "total_distance_km": 191.700971997222,
                "total_time_h": 191.700971997222
            }
        },
        {
            "personnel_id": "4",
            "name": "吴婧",
            "ban_info": "nan",
            "ban_city": "衢州市|上饶市|南通市|温州市|金华市|苏州市|上海市|无锡市|常州市|泉州市",
            "work_day": "20",
            "efficiency": "3.75",
            "assigned_routes": [
                {
                    "route_id": 4,
                    "store_count": 8,
                    "total_distance_km": 0.0,
                    "total_time_h": 0.0,
                    "store_sequence": "MS075(沈阳市) - MW0440(沈阳市) - MS2228(沈阳市) - MS762(沈阳市) - MS2005(沈阳市) - MS1242(沈阳市) - MS1632(沈阳市) - TW0344(辽阳市)",
                    "stores": [
                        {
                            "id": "MS075",
                            "name": "MS075(沈阳市)",
                            "lon": 123.49002,
                            "lat": 41.731917
                        },
                        {
                            "id": "MW0440",
                            "name": "MW0440(沈阳市)",
                            "lon": 123.484339,
                            "lat": 41.692798
                        },
                        {
                            "id": "MS2228",
                            "name": "MS2228(沈阳市)",
                            "lon": 123.464944,
                            "lat": 41.690236
                        },
                        {
                            "id": "MS762",
                            "name": "MS762(沈阳市)",
                            "lon": 123.421865,
                            "lat": 41.690605
                        },
                        {
                            "id": "MS2005",
                            "name": "MS2005(沈阳市)",
                            "lon": 123.388043,
                            "lat": 41.677186
                        },
                        {
                            "id": "MS1242",
                            "name": "MS1242(沈阳市)",
                            "lon": 123.345911,
                            "lat": 41.663487
                        },
                        {
                            "id": "MS1632",
                            "name": "MS1632(沈阳市)",
                            "lon": 123.33099,
                            "lat": 41.657553
                        },
                        {
                            "id": "TW0344",
                            "name": "TW0344(辽阳市)",
                            "lon": 123.324995,
                            "lat": 41.427055
                        }
                    ]
                },
                {
                    "route_id": 26,
                    "store_count": 7,
                    "total_distance_km": 0.0,
                    "total_time_h": 0.0,
                    "store_sequence": "MA1367(吉林市) - MA0872(吉林市) - MW0530(吉林市) - MA0575(吉林市) - MW0110(吉林市) - MA0631(吉林市) - MA0460(吉林市)",
                    "stores": [
                        {
                            "id": "MA1367",
                            "name": "MA1367(吉林市)",
                            "lon": 126.503359,
                            "lat": 43.666139
                        },
                        {
                            "id": "MA0872",
                            "name": "MA0872(吉林市)",
                            "lon": 126.561575,
                            "lat": 43.808473
                        },
                        {
                            "id": "MW0530",
                            "name": "MW0530(吉林市)",
                            "lon": 126.589827,
                            "lat": 43.821989
                        },
                        {
                            "id": "MA0575",
                            "name": "MA0575(吉林市)",
                            "lon": 126.614984,
                            "lat": 43.896
                        },
                        {
                            "id": "MW0110",
                            "name": "MW0110(吉林市)",
                            "lon": 126.565679,
                            "lat": 43.925027
                        },
                        {
                            "id": "MA0631",
                            "name": "MA0631(吉林市)",
                            "lon": 126.566906,
                            "lat": 43.885466
                        },
                        {
                            "id": "MA0460",
                            "name": "MA0460(吉林市)",
                            "lon": 126.527561,
                            "lat": 43.86113
                        }
                    ]
                },
                {
                    "route_id": 6,
                    "store_count": 8,
                    "total_distance_km": 0.0,
                    "total_time_h": 0.0,
                    "store_sequence": "TA0931(沈阳市) - TS604(沈阳市) - TS214(沈阳市) - TS743(沈阳市) - TS1020(沈阳市) - MS402(沈阳市) - MS2166(沈阳市) - MA0525(沈阳市)",
                    "stores": [
                        {
                            "id": "TA0931",
                            "name": "TA0931(沈阳市)",
                            "lon": 123.203455,
                            "lat": 41.790858
                        },
                        {
                            "id": "TS604",
                            "name": "TS604(沈阳市)",
                            "lon": 123.302424,
                            "lat": 41.789976
                        },
                        {
                            "id": "TS214",
                            "name": "TS214(沈阳市)",
                            "lon": 123.335564,
                            "lat": 41.797572
                        },
                        {
                            "id": "TS743",
                            "name": "TS743(沈阳市)",
                            "lon": 123.345377,
                            "lat": 41.803735
                        },
                        {
                            "id": "TS1020",
                            "name": "TS1020(沈阳市)",
                            "lon": 123.360026,
                            "lat": 41.796172
                        },
                        {
                            "id": "MS402",
                            "name": "MS402(沈阳市)",
                            "lon": 123.374482,
                            "lat": 41.796507
                        },
                        {
                            "id": "MS2166",
                            "name": "MS2166(沈阳市)",
                            "lon": 123.392279,
                            "lat": 41.79536
                        },
                        {
                            "id": "MA0525",
                            "name": "MA0525(沈阳市)",
                            "lon": 123.406821,
                            "lat": 41.789224
                        }
                    ]
                },
                {
                    "route_id": 9,
                    "store_count": 4,
                    "total_distance_km": 0.0,
                    "total_time_h": 0.0,
                    "store_sequence": "MA1356(本溪市) - MA0686(本溪市) - TW0254(辽阳市) - TA0918(丹东市)",
                    "stores": [
                        {
                            "id": "MA1356",
                            "name": "MA1356(本溪市)",
                            "lon": 124.128168,
                            "lat": 41.300633
                        },
                        {
                            "id": "MA0686",
                            "name": "MA0686(本溪市)",
                            "lon": 123.760239,
                            "lat": 41.290965
                        },
                        {
                            "id": "TW0254",
                            "name": "TW0254(辽阳市)",
                            "lon": 123.433105,
                            "lat": 41.15878
                        },
                        {
                            "id": "TA0918",
                            "name": "TA0918(丹东市)",
                            "lon": 124.344333,
                            "lat": 40.012849
                        }
                    ]
                },
                {
                    "route_id": 3,
                    "store_count": 12,
                    "total_distance_km": 0.0,
                    "total_time_h": 0.0,
                    "store_sequence": "ME1021(沈阳市) - MS061(沈阳市) - TS431(沈阳市) - TS208(沈阳市) - MA1355(沈阳市) - TS636(沈阳市) - TS159(沈阳市) - TW0253(沈阳市) - MS491(沈阳市) - TA0860(沈阳市) - TA0855(铁岭市) - TW0295(铁岭市)",
                    "stores": [
                        {
                            "id": "ME1021",
                            "name": "ME1021(沈阳市)",
                            "lon": 123.434247,
                            "lat": 41.812221
                        },
                        {
                            "id": "MS061",
                            "name": "MS061(沈阳市)",
                            "lon": 123.456043,
                            "lat": 41.818267
                        },
                        {
                            "id": "TS431",
                            "name": "TS431(沈阳市)",
                            "lon": 123.474818,
                            "lat": 41.830734
                        },
                        {
                            "id": "TS208",
                            "name": "TS208(沈阳市)",
                            "lon": 123.463901,
                            "lat": 41.864495
                        },
                        {
                            "id": "MA1355",
                            "name": "MA1355(沈阳市)",
                            "lon": 123.417403,
                            "lat": 41.856862
                        },
                        {
                            "id": "TS636",
                            "name": "TS636(沈阳市)",
                            "lon": 123.398314,
                            "lat": 41.823513
                        },
                        {
                            "id": "TS159",
                            "name": "TS159(沈阳市)",
                            "lon": 123.374463,
                            "lat": 41.824799
                        },
                        {
                            "id": "TW0253",
                            "name": "TW0253(沈阳市)",
                            "lon": 123.38921,
                            "lat": 41.899479
                        },
                        {
                            "id": "MS491",
                            "name": "MS491(沈阳市)",
                            "lon": 123.415132,
                            "lat": 41.915584
                        },
                        {
                            "id": "TA0860",
                            "name": "TA0860(沈阳市)",
                            "lon": 123.524367,
                            "lat": 42.04972
                        },
                        {
                            "id": "TA0855",
                            "name": "TA0855(铁岭市)",
                            "lon": 123.741317,
                            "lat": 42.237663
                        },
                        {
                            "id": "TW0295",
                            "name": "TW0295(铁岭市)",
                            "lon": 124.046381,
                            "lat": 42.539388
                        }
                    ]
                },
                {
                    "route_id": 5,
                    "store_count": 6,
                    "total_distance_km": 0.0,
                    "total_time_h": 0.0,
                    "store_sequence": "MS1378(阜新市) - MW0403(阜新市) - MS2441(阜新市) - TS908(沈阳市) - TS1186(抚顺市) - TW0277(抚顺市)",
                    "stores": [
                        {
                            "id": "MS1378",
                            "name": "MS1378(阜新市)",
                            "lon": 121.659818,
                            "lat": 42.008073
                        },
                        {
                            "id": "MW0403",
                            "name": "MW0403(阜新市)",
                            "lon": 121.661557,
                            "lat": 42.045681
                        },
                        {
                            "id": "MS2441",
                            "name": "MS2441(阜新市)",
                            "lon": 122.535484,
                            "lat": 42.383987
                        },
                        {
                            "id": "TS908",
                            "name": "TS908(沈阳市)",
                            "lon": 123.363319,
                            "lat": 41.868374
                        },
                        {
                            "id": "TS1186",
                            "name": "TS1186(抚顺市)",
                            "lon": 123.913305,
                            "lat": 41.88118
                        },
                        {
                            "id": "TW0277",
                            "name": "TW0277(抚顺市)",
                            "lon": 124.045291,
                            "lat": 41.864782
                        }
                    ]
                },
                {
                    "route_id": 23,
                    "store_count": 3,
                    "total_distance_km": 0.0,
                    "total_time_h": 0.0,
                    "store_sequence": "MW0443(通辽市) - MA1396(通辽市) - MW0474(通辽市)",
                    "stores": [
                        {
                            "id": "MW0443",
                            "name": "MW0443(通辽市)",
                            "lon": 121.77638,
                            "lat": 42.735366
                        },
                        {
                            "id": "MA1396",
                            "name": "MA1396(通辽市)",
                            "lon": 122.256982,
                            "lat": 43.661141
                        },
                        {
                            "id": "MW0474",
                            "name": "MW0474(通辽市)",
                            "lon": 123.2879,
                            "lat": 44.123901
                        }
                    ]
                },
                {
                    "route_id": 27,
                    "store_count": 7,
                    "total_distance_km": 0.0,
                    "total_time_h": 0.0,
                    "store_sequence": "TW0518(长春市) - MW1031(长春市) - TW0280(长春市) - TA0628(长春市) - TA0404(长春市) - TW0072(长春市) - TA0715(长春市)",
                    "stores": [
                        {
                            "id": "TW0518",
                            "name": "TW0518(长春市)",
                            "lon": 125.658194,
                            "lat": 43.534037
                        },
                        {
                            "id": "MW1031",
                            "name": "MW1031(长春市)",
                            "lon": 125.525066,
                            "lat": 43.698454
                        },
                        {
                            "id": "TW0280",
                            "name": "TW0280(长春市)",
                            "lon": 125.366207,
                            "lat": 43.846055
                        },
                        {
                            "id": "TA0628",
                            "name": "TA0628(长春市)",
                            "lon": 125.378461,
                            "lat": 43.883559
                        },
                        {
                            "id": "TA0404",
                            "name": "TA0404(长春市)",
                            "lon": 125.368814,
                            "lat": 43.932284
                        },
                        {
                            "id": "TW0072",
                            "name": "TW0072(长春市)",
                            "lon": 125.323116,
                            "lat": 43.914823
                        },
                        {
                            "id": "TA0715",
                            "name": "TA0715(长春市)",
                            "lon": 125.292064,
                            "lat": 43.937392
                        }
                    ]
                },
                {
                    "route_id": 8,
                    "store_count": 5,
                    "total_distance_km": 0.0,
                    "total_time_h": 0.0,
                    "store_sequence": "TS548(鞍山市) - TS583(鞍山市) - MW1053(鞍山市) - TW0645(营口市) - TW0670(营口市)",
                    "stores": [
                        {
                            "id": "TS548",
                            "name": "TS548(鞍山市)",
                            "lon": 123.054048,
                            "lat": 41.144876
                        },
                        {
                            "id": "TS583",
                            "name": "TS583(鞍山市)",
                            "lon": 122.979269,
                            "lat": 41.115646
                        },
                        {
                            "id": "MW1053",
                            "name": "MW1053(鞍山市)",
                            "lon": 122.757331,
                            "lat": 40.846862
                        },
                        {
                            "id": "TW0645",
                            "name": "TW0645(营口市)",
                            "lon": 122.123497,
                            "lat": 40.245907
                        },
                        {
                            "id": "TW0670",
                            "name": "TW0670(营口市)",
                            "lon": 122.143132,
                            "lat": 40.181546
                        }
                    ]
                },
                {
                    "route_id": 2,
                    "store_count": 12,
                    "total_distance_km": 0.0,
                    "total_time_h": 0.0,
                    "store_sequence": "MA1117(大连市) - MW0404(大连市) - TW0255(大连市) - TS774(大连市) - TW0682(大连市) - TS1109(大连市) - MW0045(大连市) - TW0695(大连市) - MS1638(大连市) - TW0181(大连市) - TS1089(大连市) - TS1001(大连市)",
                    "stores": [
                        {
                            "id": "MA1117",
                            "name": "MA1117(大连市)",
                            "lon": 121.265947,
                            "lat": 38.810235
                        },
                        {
                            "id": "MW0404",
                            "name": "MW0404(大连市)",
                            "lon": 121.314455,
                            "lat": 38.813886
                        },
                        {
                            "id": "TW0255",
                            "name": "TW0255(大连市)",
                            "lon": 121.478089,
                            "lat": 38.920678
                        },
                        {
                            "id": "TS774",
                            "name": "TS774(大连市)",
                            "lon": 121.521048,
                            "lat": 38.959221
                        },
                        {
                            "id": "TW0682",
                            "name": "TW0682(大连市)",
                            "lon": 121.545948,
                            "lat": 38.972906
                        },
                        {
                            "id": "TS1109",
                            "name": "TS1109(大连市)",
                            "lon": 121.587494,
                            "lat": 38.968994
                        },
                        {
                            "id": "MW0045",
                            "name": "MW0045(大连市)",
                            "lon": 121.62714,
                            "lat": 38.975281
                        },
                        {
                            "id": "TW0695",
                            "name": "TW0695(大连市)",
                            "lon": 121.627557,
                            "lat": 39.006161
                        },
                        {
                            "id": "MS1638",
                            "name": "MS1638(大连市)",
                            "lon": 121.610278,
                            "lat": 39.008709
                        },
                        {
                            "id": "TW0181",
                            "name": "TW0181(大连市)",
                            "lon": 121.555017,
                            "lat": 38.920396
                        },
                        {
                            "id": "TS1089",
                            "name": "TS1089(大连市)",
                            "lon": 121.5884,
                            "lat": 38.890142
                        },
                        {
                            "id": "TS1001",
                            "name": "TS1001(大连市)",
                            "lon": 121.63911,
                            "lat": 38.922902
                        }
                    ]
                }
            ],
            "total_cities": 10,
            "city_sequence": "沈阳市 -> 吉林市 -> 沈阳市 -> 本溪市 -> 沈阳市 -> 阜新市 -> 通辽市 -> 长春市 -> 鞍山市 -> 大连市",
            "route_summary": {
                "total_routes": 447,
                "total_stores": 72,
                "total_distance_km": 185.612562593865,
                "total_time_h": 185.612562593865
            }
        },
        {
            "personnel_id": "5",
            "name": "郑清清",
            "ban_info": "西部大区",
            "ban_city": "菏泽市|北京市|新乡市|郑州市|临沂市|潍坊市|沧州市|廊坊市|武汉市|鄂州市|安阳市|黄冈市",
            "work_day": "20",
            "efficiency": "3.75",
            "assigned_routes": [
                {
                    "route_id": 195,
                    "store_count": 8,
                    "total_distance_km": 0.0,
                    "total_time_h": 0.0,
                    "store_sequence": "MW0448(亳州市) - MA1011(亳州市) - MW0113(亳州市) - MS590(亳州市) - MA0898(亳州市) - MS1633(亳州市) - MA1446(亳州市) - MA1229(亳州市)",
                    "stores": [
                        {
                            "id": "MW0448",
                            "name": "MW0448(亳州市)",
                            "lon": 115.781652,
                            "lat": 33.793165
                        },
                        {
                            "id": "MA1011",
                            "name": "MA1011(亳州市)",
                            "lon": 115.775294,
                            "lat": 33.813232
                        },
                        {
                            "id": "MW0113",
                            "name": "MW0113(亳州市)",
                            "lon": 115.814636,
                            "lat": 33.815169
                        },
                        {
                            "id": "MS590",
                            "name": "MS590(亳州市)",
                            "lon": 115.780238,
                            "lat": 33.830137
                        },
                        {
                            "id": "MA0898",
                            "name": "MA0898(亳州市)",
                            "lon": 115.769208,
                            "lat": 33.84865
                        },
                        {
                            "id": "MS1633",
                            "name": "MS1633(亳州市)",
                            "lon": 115.761564,
                            "lat": 33.866166
                        },
                        {
                            "id": "MA1446",
                            "name": "MA1446(亳州市)",
                            "lon": 115.777548,
                            "lat": 33.871613
                        },
                        {
                            "id": "MA1229",
                            "name": "MA1229(亳州市)",
                            "lon": 115.78194,
                            "lat": 33.89267
                        }
                    ]
                },
                {
                    "route_id": 202,
                    "store_count": 7,
                    "total_distance_km": 0.0,
                    "total_time_h": 0.0,
                    "store_sequence": "M844(宿州市) - MS925(宿州市) - MS1102(宿州市) - MS1448(宿州市) - MW0445(宿州市) - MS348(宿州市) - MS2408(宿州市)",
                    "stores": [
                        {
                            "id": "M844",
                            "name": "M844(宿州市)",
                            "lon": 116.978897,
                            "lat": 33.758474
                        },
                        {
                            "id": "MS925",
                            "name": "MS925(宿州市)",
                            "lon": 116.968291,
                            "lat": 33.658821
                        },
                        {
                            "id": "MS1102",
                            "name": "MS1102(宿州市)",
                            "lon": 116.943892,
                            "lat": 33.635155
                        },
                        {
                            "id": "MS1448",
                            "name": "MS1448(宿州市)",
                            "lon": 116.960415,
                            "lat": 33.615999
                        },
                        {
                            "id": "MW0445",
                            "name": "MW0445(宿州市)",
                            "lon": 117.005956,
                            "lat": 33.613815
                        },
                        {
                            "id": "MS348",
                            "name": "MS348(宿州市)",
                            "lon": 116.989127,
                            "lat": 33.631669
                        },
                        {
                            "id": "MS2408",
                            "name": "MS2408(宿州市)",
                            "lon": 117.080983,
                            "lat": 33.634099
                        }
                    ]
                },
                {
                    "route_id": 205,
                    "store_count": 6,
                    "total_distance_km": 0.0,
                    "total_time_h": 0.0,
                    "store_sequence": "MA1040(淮北市) - TS278(亳州市) - TS581(亳州市) - MS2450(亳州市) - ME125(亳州市) - MA1543(亳州市)",
                    "stores": [
                        {
                            "id": "MA1040",
                            "name": "MA1040(淮北市)",
                            "lon": 116.875472,
                            "lat": 33.492462
                        },
                        {
                            "id": "TS278",
                            "name": "TS278(亳州市)",
                            "lon": 116.568952,
                            "lat": 33.256223
                        },
                        {
                            "id": "TS581",
                            "name": "TS581(亳州市)",
                            "lon": 116.562086,
                            "lat": 33.235133
                        },
                        {
                            "id": "MS2450",
                            "name": "MS2450(亳州市)",
                            "lon": 116.208343,
                            "lat": 33.150266
                        },
                        {
                            "id": "ME125",
                            "name": "ME125(亳州市)",
                            "lon": 116.20224,
                            "lat": 33.145274
                        },
                        {
                            "id": "MA1543",
                            "name": "MA1543(亳州市)",
                            "lon": 116.316779,
                            "lat": 33.010834
                        }
                    ]
                },
                {
                    "route_id": 262,
                    "store_count": 7,
                    "total_distance_km": 0.0,
                    "total_time_h": 0.0,
                    "store_sequence": "TS1113(济南市) - MC0003(济南市) - TS590(济南市) - T543(济南市) - TS413(济南市) - TA0357(济南市) - TA0578(济南市)",
                    "stores": [
                        {
                            "id": "TS1113",
                            "name": "TS1113(济南市)",
                            "lon": 117.220967,
                            "lat": 36.686754
                        },
                        {
                            "id": "MC0003",
                            "name": "MC0003(济南市)",
                            "lon": 117.18353,
                            "lat": 36.717439
                        },
                        {
                            "id": "TS590",
                            "name": "TS590(济南市)",
                            "lon": 117.146523,
                            "lat": 36.701462
                        },
                        {
                            "id": "T543",
                            "name": "T543(济南市)",
                            "lon": 117.131881,
                            "lat": 36.687422
                        },
                        {
                            "id": "TS413",
                            "name": "TS413(济南市)",
                            "lon": 117.149557,
                            "lat": 36.665765
                        },
                        {
                            "id": "TA0357",
                            "name": "TA0357(济南市)",
                            "lon": 117.134127,
                            "lat": 36.653114
                        },
                        {
                            "id": "TA0578",
                            "name": "TA0578(济南市)",
                            "lon": 117.153704,
                            "lat": 36.65343
                        }
                    ]
                },